$INRMC,112731,A,3702.6911,S,07330.4697,W,0.4,358.0,030313,6.9,E*6B
$INDPT,2.0,0.0*45
$INGLL,3702.6911,S,07330.4697,W,112732,A*33
$INVTG,358.0,T,351.2,M,0.2,N,0.3,K*54
$INMTW,13.3,C*15
$INDPT,1.9,0.0*4F
$INRMC,112733,A,3702.6915,S,07330.4697,W,0.3,358.0,030313,6.9,E*6A
$INDPT,2.5,0.0*40
$INGGA,112734,3702.6911,S,07330.4697,W,1,10,0.8,0.1,M,,,,*06
$INZDA,112734,03,03,2013,-07,00*70
$INMTW,13.2,C*14
$INDPT,1.9,0.0*4F
$INRMC,112735,A,3702.6915,S,07330.4702,W,0.2,358.0,030313,6.9,E*60
$INDPT,2.4,0.0*41
$INGLL,3702.6911,S,07330.4702,W,112736,A*3A
$INVTG,358.0,T,351.2,M,0.3,N,0.6,K*50
$INMTW,13.1,C*17
$INDPT,2.4,0.0*41
$INRMC,112737,A,3702.6911,S,07330.4702,W,0.4,307.6,030313,6.9,E*6C
$INDPT,2.0,0.0*45
$INGGA,112738,3702.6911,S,07330.4702,W,1,10,0.8,0.3,M,,,,*05
$INZDA,112738,03,03,2013,-07,00*7C
$INMTW,13.2,C*14
$INDPT,1.9,0.0*4F
$INRMC,112739,A,3702.6911,S,07330.4702,W,0.1,312.4,030313,6.9,E*61
$INDPT,2.2,0.0*47
$INGLL,3702.6911,S,07330.4702,W,112740,A*3B
$INVTG,312.4,T,305.5,M,0.1,N,0.2,K*5A
$INMTW,13.1,C*17
$INDPT,2.5,0.0*40
$INRMC,112741,A,3702.6911,S,07330.4702,W,0.2,312.4,030313,6.9,E*6D
$INDPT,2.2,0.0*47
$INGGA,112742,3702.6911,S,07330.4702,W,1,10,0.8,0.2,M,,,,*09
$INZDA,112742,03,03,2013,-07,00*71
$INMTW,13.2,C*14
$INDPT,1.8,0.0*4E
$INRMC,112743,A,3702.6911,S,07330.4702,W,0.4,276.0,030313,6.9,E*6E
$INDPT,2.2,0.0*47
$INGLL,3702.6911,S,07330.4702,W,112744,A*3F
$INVTG,276.0,T,269.1,M,0.3,N,0.6,K*54
$INMTW,13.1,C*17
$INDPT,1.7,0.0*41
$INRMC,112745,A,3702.6911,S,07330.4702,W,0.4,212.6,030313,6.9,E*6C
$INDPT,1.8,0.0*4E
$INGGA,112746,3702.6915,S,07330.4702,W,1,10,0.8,0.4,M,,,,*0F
$INZDA,112746,03,03,2013,-07,00*75
$INMTW,13.2,C*14
$INDPT,1.8,0.0*4E
$INRMC,112747,A,3702.6915,S,07330.4702,W,0.4,200.2,030313,6.9,E*6D
$INDPT,1.9,0.0*4F
$INGLL,3702.6915,S,07330.4697,W,112748,A*3A
$INVTG,200.2,T,193.3,M,0.3,N,0.5,K*50
$INMTW,13.1,C*17
$INDPT,2.0,0.0*45
$INRMC,112749,A,3702.6915,S,07330.4697,W,0.4,200.2,030313,6.9,E*6E
$INDPT,2.0,0.0*45
$INGGA,112750,3702.6915,S,07330.4702,W,1,10,0.8,1.0,M,,,,*0D
$INZDA,112750,03,03,2013,-07,00*72
$INMTW,13.2,C*14
$INDPT,1.9,0.0*4F
$INRMC,112751,A,3702.6915,S,07330.4702,W,0.5,229.8,030313,6.9,E*6A
$INDPT,2.6,0.0*43
$INGLL,3702.6915,S,07330.4702,W,112752,A*3C
$INVTG,229.8,T,222.9,M,0.3,N,0.5,K*52
$INMTW,13.2,C*14
$INDPT,2.3,0.0*46
$INRMC,112753,A,3702.6915,S,07330.4702,W,0.5,224.3,030313,6.9,E*6E
$INDPT,2.1,0.0*44
$INGGA,112754,3702.6915,S,07330.4702,W,1,10,0.8,0.9,M,,,,*01
$INZDA,112754,03,03,2013,-07,00*76
$INMTW,13.1,C*17
$INDPT,2.2,0.0*47
$INRMC,112755,A,3702.6915,S,07330.4702,W,0.5,202.4,030313,6.9,E*6B
$INDPT,1.8,0.0*4E
$INGLL,3702.6915,S,07330.4702,W,112756,A*38
$INVTG,201.0,T,194.1,M,1.7,N,3.2,K*57
$INMTW,13.1,C*17
$INDPT,2.5,0.0*40
$INRMC,112757,A,3702.6915,S,07330.4702,W,0.1,199.6,030313,6.9,E*6E
$INDPT,2.0,0.0*45
$INGGA,112758,3702.6915,S,07330.4697,W,1,10,0.8,0.8,M,,,,*01
$INZDA,112758,03,03,2013,-07,00*7A
$INMTW,13.2,C*14
$INDPT,1.7,0.0*41
$INRMC,112759,A,3702.6920,S,07330.4697,W,0.1,183.3,030313,6.9,E*65
$INDPT,2.1,0.0*44
$INGLL,3702.6920,S,07330.4697,W,112800,A*3F
$INVTG,179.8,T,172.9,M,0.5,N,1.0,K*50
$INMTW,13.1,C*17
$INDPT,2.5,0.0*40
$INRMC,112801,A,3702.6920,S,07330.4697,W,0.4,175.1,030313,6.9,E*69
$INDPT,1.7,0.0*41
$INGGA,112802,3702.6915,S,07330.4697,W,1,09,1.0,0.8,M,,,,*00
$INZDA,112802,03,03,2013,-07,00*7A
$INMTW,13.3,C*15
$INDPT,1.8,0.0*4E
$INRMC,112803,A,3702.6920,S,07330.4697,W,0.0,175.1,030313,6.9,E*6F
$INDPT,1.7,0.0*41
$INGLL,3702.6920,S,07330.4691,W,112804,A*3D
$INVTG,175.1,T,168.2,M,0.3,N,0.6,K*54
$INMTW,13.3,C*15
$INDPT,1.9,0.0*4F
$INRMC,112805,A,3702.6920,S,07330.4691,W,0.2,175.1,030313,6.9,E*6D
$INDPT,1.8,0.0*4E
$INGGA,112806,3702.6920,S,07330.4691,W,1,09,1.0,0.5,M,,,,*09
$INZDA,112806,03,03,2013,-07,00*7E
$INMTW,13.2,C*14
$INDPT,1.9,0.0*4F
$INRMC,112807,A,3702.6920,S,07330.4691,W,0.4,177.9,030313,6.9,E*63
$INDPT,2.0,0.0*45
$INGLL,3702.6915,S,07330.4691,W,112808,A*37
$INVTG,210.4,T,203.5,M,0.6,N,1.1,K*5B
$INMTW,13.2,C*14
$INDPT,1.8,0.0*4E
$INRMC,112809,A,3702.6915,S,07330.4697,W,0.6,223.6,030313,6.9,E*62
$INDPT,2.2,0.0*47
$INGGA,112810,3702.6915,S,07330.4697,W,1,10,0.8,0.5,M,,,,*0F
$INZDA,112810,03,03,2013,-07,00*79
$INMTW,13.2,C*14
$INDPT,1.8,0.0*4E
$INRMC,112811,A,3702.6915,S,07330.4697,W,0.2,223.6,030313,6.9,E*6F
$INDPT,1.8,0.0*4E
$INGLL,3702.6915,S,07330.4697,W,112812,A*3A
$INVTG,223.6,T,216.7,M,0.1,N,0.1,K*59
$INMTW,13.3,C*15
$INDPT,1.9,0.0*4F
$INRMC,112813,A,3702.6915,S,07330.4697,W,0.2,223.6,030313,6.9,E*6D
$INDPT,2.2,0.0*47
$INGGA,112814,3702.6915,S,07330.4697,W,1,10,0.8,0.4,M,,,,*0A
$INZDA,112814,03,03,2013,-07,00*7D
$INMTW,13.3,C*15
$INDPT,2.2,0.0*47
$INRMC,112815,A,3702.6915,S,07330.4697,W,0.2,223.6,030313,6.9,E*6B
$INDPT,1.8,0.0*4E
$INGLL,3702.6915,S,07330.4697,W,112816,A*3E
$INVTG,223.6,T,216.7,M,0.1,N,0.1,K*59
$INMTW,13.2,C*14
$INDPT,1.8,0.0*4E
$INRMC,112817,A,3702.6915,S,07330.4697,W,0.1,223.6,030313,6.9,E*6A
$INDPT,2.2,0.0*47
$INGGA,112818,3702.6915,S,07330.4697,W,1,10,1.0,0.3,M,,,,*08
$INZDA,112818,03,03,2013,-07,00*71
$INMTW,13.2,C*14
$INDPT,2.5,0.0*40
$INRMC,112819,A,3702.6920,S,07330.4697,W,0.4,223.6,030313,6.9,E*67
$INDPT,2.0,0.0*45
$INGLL,3702.6915,S,07330.4697,W,112820,A*3B
$INVTG,227.4,T,220.5,M,0.2,N,0.3,K*59
$INMTW,13.3,C*15
$INDPT,1.9,0.0*4F
$INRMC,112821,A,3702.6915,S,07330.4697,W,0.7,251.1,030313,6.9,E*6B
$INDPT,1.9,0.0*4F
$INGGA,112822,3702.6915,S,07330.4702,W,1,10,0.8,0.3,M,,,,*05
$INZDA,112822,03,03,2013,-07,00*78
$INMTW,13.3,C*15
$INDPT,1.9,0.0*4F
$INRMC,112823,A,3702.6911,S,07330.4702,W,0.5,281.0,030313,6.9,E*6E
$INDPT,2.0,0.0*45
$INGLL,3702.6911,S,07330.4702,W,112824,A*36
$INVTG,281.0,T,274.1,M,0.2,N,0.3,K*54
$INMTW,13.3,C*15
$INDPT,1.9,0.0*4F
$INRMC,112825,A,3702.6911,S,07330.4702,W,0.1,281.0,030313,6.9,E*6C
$INDPT,2.2,0.0*47
$INGGA,112826,3702.6911,S,07330.4702,W,1,10,0.8,0.1,M,,,,*07
$INZDA,112826,03,03,2013,-07,00*7C
$INMTW,13.3,C*15
$INDPT,1.7,0.0*41
$INRMC,112827,A,3702.6911,S,07330.4702,W,0.1,281.0,030313,6.9,E*6E
$INDPT,1.9,0.0*4F
$INGLL,3702.6911,S,07330.4702,W,112828,A*3A
$INVTG,281.0,T,274.1,M,0.2,N,0.3,K*54
$INMTW,13.4,C*12
$INDPT,1.8,0.0*4E
$INRMC,112829,A,3702.6911,S,07330.4702,W,0.4,281.0,030313,6.9,E*65
$INDPT,1.8,0.0*4E
$INGGA,112830,3702.6911,S,07330.4702,W,1,10,0.8,0.3,M,,,,*02
$INZDA,112830,03,03,2013,-07,00*7B
$INMTW,13.3,C*15
$INDPT,1.8,0.0*4E
$INRMC,112831,A,3702.6911,S,07330.4702,W,0.2,281.0,030313,6.9,E*6A
$INDPT,1.7,0.0*41
$INGLL,3702.6911,S,07330.4702,W,112832,A*31
$INVTG,281.0,T,274.1,M,0.2,N,0.3,K*54
$INMTW,13.4,C*12
$INDPT,1.8,0.0*4E
$INRMC,112833,A,3702.6911,S,07330.4702,W,0.2,281.0,030313,6.9,E*68
$INDPT,1.9,0.0*4F
$INGGA,112834,3702.6911,S,07330.4702,W,1,10,0.8,0.3,M,,,,*06
$INZDA,112834,03,03,2013,-07,00*7F
$INMTW,13.4,C*12
$INDPT,1.8,0.0*4E
$INRMC,112835,A,3702.6911,S,07330.4702,W,0.5,280.8,030313,6.9,E*60
$INDPT,1.8,0.0*4E
$INGLL,3702.6911,S,07330.4702,W,112836,A*35
$INVTG,280.8,T,273.9,M,0.1,N,0.2,K*50
$INMTW,13.3,C*15
$INDPT,1.9,0.0*4F
$INRMC,112837,A,3702.6911,S,07330.4708,W,0.4,280.8,030313,6.9,E*69
$INDPT,2.7,0.0*42
$INGGA,112838,3702.6911,S,07330.4708,W,1,10,0.8,0.3,M,,,,*00
$INZDA,112838,03,03,2013,-07,00*73
$INMTW,13.3,C*15
$INDPT,2.3,0.0*46
$INRMC,112839,A,3702.6911,S,07330.4708,W,0.2,280.8,030313,6.9,E*61
$INDPT,3.0,0.0*44
$INGLL,3702.6911,S,07330.4708,W,112840,A*3E
$INVTG,280.8,T,273.9,M,0.2,N,0.4,K*55
$INMTW,13.4,C*12
$INDPT,2.4,0.0*41
$INRMC,112841,A,3702.6911,S,07330.4708,W,0.1,280.8,030313,6.9,E*6D
$INDPT,1.9,0.0*4F
$INGGA,112842,3702.6911,S,07330.4708,W,1,09,1.0,0.2,M,,,,*0D
$INZDA,112842,03,03,2013,-07,00*7E
$INMTW,13.4,C*12
$INDPT,1.9,0.0*4F
$INRMC,112843,A,3702.6911,S,07330.4708,W,0.2,280.8,030313,6.9,E*6C
$INDPT,2.2,0.0*47
$INGLL,3702.6911,S,07330.4708,W,112844,A*3A
$INVTG,280.8,T,273.9,M,0.1,N,0.2,K*50
$INMTW,13.3,C*15
$INDPT,2.3,0.0*46
$INRMC,112845,A,3702.6911,S,07330.4708,W,0.1,280.8,030313,6.9,E*69
$INDPT,2.2,0.0*47
$INGGA,112846,3702.6911,S,07330.4708,W,1,10,0.8,0.1,M,,,,*0B
$INZDA,112846,03,03,2013,-07,00*7A
$INMTW,13.4,C*12
$INDPT,1.9,0.0*4F
$INRMC,112847,A,3702.6911,S,07330.4708,W,0.4,280.8,030313,6.9,E*6E
$INDPT,1.9,0.0*4F
$INGLL,3702.6911,S,07330.4708,W,112848,A*36
$INVTG,263.4,T,256.5,M,0.1,N,0.3,K*5B
$INMTW,13.5,C*13
$INDPT,1.9,0.0*4F
$INRMC,112849,A,3702.6911,S,07330.4708,W,0.6,245.6,030313,6.9,E*65
$INDPT,1.9,0.0*4F
$INGGA,112850,3702.6915,S,07330.4708,W,1,10,0.8,0.1,M,,,,*08
$INZDA,112850,03,03,2013,-07,00*7D
$INMTW,13.4,C*12
$INDPT,2.5,0.0*40
$INRMC,112851,A,3702.6915,S,07330.4708,W,0.6,210.2,030313,6.9,E*6C
$INDPT,2.0,0.0*45
$INGLL,3702.6915,S,07330.4708,W,112852,A*39
$INVTG,210.2,T,203.3,M,0.2,N,0.4,K*5B
$INMTW,13.4,C*12
$PUBX,40,RMC,0,4,0,0*43
$PUBX,40,GGA,0,4,0,0*5E
$PUBX,40,GSV,0,8,0,0*51
$PUBX,40,GSA,0,8,0,0*46
$PUBX,40,VTG,0,0,0,0*5E
$PUBX,40,GLL,0,0,0,0*5C
µb    ù$INDPT,2.1,0.0*44
$INRMC,112853,A,3702.6915,S,07330.4708,W,0.6,228.2,030313,6.9,E*65
$PUBX,40,RMC,0,1,0,0*46
$PUBX,40,GGA,0,4,0,0*5E
$PUBX,40,GSV,0,0,0,0*59
$PUBX,40,GSA,0,0,0,0*4E
$PUBX,40,VTG,0,0,0,0*5E
$PUBX,40,GLL,0,0,0,0*5C
µb     Ö$INDPT,2.1,0.0*44
$INGGA,112853,3702.6915,S,07330.4708,W,1,10,1.0,0.2,M,,,,*01
$INZDA,112853,03,03,2013,-07,00*7E
$INMTW,13.4,C*12
$INDPT,1.9,0.0*4F
$INRMC,112855,A,3702.6915,S,07330.4708,W,0.3,228.2,030313,6.9,E*66
$INDPT,1.9,0.0*4F
$INGLL,,,,,,V*16
$INVTG,,T,,M,,N,,K*5E
$INMTW,13.2,C*14
$INDPT,2.2,0.0*47
$INRMC,112857,A,3702.6915,S,07330.4708,W,0.6,214.5,030313,6.9,E*69
$INDPT,1.9,0.0*4F
$INGGA,112858,3702.6920,S,07330.4708,W,1,10,0.8,0.0,M,,,,*07
$INZDA,112858,03,03,2013,-07,00*75
$INMTW,13.4,C*12
$INDPT,1.9,0.0*4F
$INRMC,112859,A,3702.6920,S,07330.4702,W,0.4,192.5,030313,6.9,E*64
$INDPT,1.8,0.0*4E
$INGLL,3702.6920,S,07330.4702,W,112900,A*33
$INVTG,177.5,T,170.6,M,0.7,N,1.2,K*5E
$INMTW,13.5,C*13
$INDPT,1.8,0.0*4E
$INRMC,112901,A,3702.6924,S,07330.4702,W,0.8,171.9,030313,6.9,E*61
$PUBX,40,RMC,0,4,0,0*43
$PUBX,40,GGA,0,4,0,0*5E
$PUBX,40,GSV,0,8,0,0*51
$PUBX,40,GSA,0,8,0,0*46
$PUBX,40,VTG,0,0,0,0*5E
$PUBX,40,GLL,0,0,0,0*5C
µb    ù$INDPT,2.0,0.0*45
$INGGA,112901,3702.6924,S,07330.4702,W,1,10,0.8,0.2,M,,,,*06
$INZDA,112901,03,03,2013,-07,00*78
$INMTW,13.4,C*12
$INDPT,2.0,0.0*45
$INRMC,112902,A,3702.6924,S,07330.4702,W,0.3,171.9,030313,6.9,E*69
$INDPT,2.0,0.0*45
$INGLL,3702.6920,S,07330.4702,W,112903,A*30
$INVTG,171.9,T,165.0,M,0.2,N,0.5,K*55
$INMTW,13.4,C*12
$INDPT,1.9,0.0*4F
$INRMC,112904,A,3702.6920,S,07330.4702,W,0.2,171.9,030313,6.9,E*6A
$INDPT,2.0,0.0*45
$INGGA,112905,3702.6920,S,07330.4702,W,1,10,0.8,0.3,M,,,,*07
$INZDA,112905,03,03,2013,-07,00*7C
$INMTW,13.4,C*12
$INDPT,1.8,0.0*4E
$INRMC,112906,A,3702.6920,S,07330.4702,W,0.5,232.6,030313,6.9,E*64
$INDPT,2.1,0.0*44
$INGLL,3702.6924,S,07330.4702,W,112907,A*30
$INVTG,232.6,T,225.7,M,0.4,N,0.7,K*5A
$INMTW,13.4,C*12
$INDPT,2.2,0.0*47
$INRMC,112908,A,3702.6924,S,07330.4702,W,0.3,232.6,030313,6.9,E*68
$INDPT,1.9,0.0*4F
$INGGA,112909,3702.6924,S,07330.4702,W,1,10,0.8,0.4,M,,,,*08
$INZDA,112909,03,03,2013,-07,00*70
$INMTW,13.4,C*12
$INDPT,2.0,0.0*45
$INRMC,112910,A,3702.6924,S,07330.4702,W,0.2,232.6,030313,6.9,E*60
$INDPT,1.9,0.0*4F
$INGLL,3702.6924,S,07330.4702,W,112911,A*37
$INVTG,232.6,T,225.7,M,0.2,N,0.3,K*58
$INMTW,13.3,C*15
$INDPT,1.9,0.0*4F
$INRMC,112912,A,3702.6924,S,07330.4702,W,0.1,232.6,030313,6.9,E*61
$INDPT,1.9,0.0*4F
$INGGA,112913,3702.6924,S,07330.4702,W,2,10,0.8,0.6,M,,,0.0,0000*2C
$INZDA,112913,03,03,2013,-07,00*7B
$INMTW,13.4,C*12
$INDPT,1.9,0.0*4F
$INRMC,112914,A,3702.6924,S,07330.4702,W,0.3,232.6,030313,6.9,E*65
$INDPT,1.9,0.0*4F
$INGLL,3702.6924,S,07330.4702,W,112915,A*33
$INVTG,232.6,T,225.7,M,0.2,N,0.4,K*5F
$INMTW,13.3,C*15
$INDPT,1.8,0.0*4E
$INRMC,112916,A,3702.6924,S,07330.4702,W,0.1,232.6,030313,6.9,E*65
$INDPT,1.9,0.0*4F
$INGGA,112917,3702.6924,S,07330.4702,W,2,10,0.8,0.7,M,,,0.0,0000*29
$INZDA,112917,03,03,2013,-07,00*7F
$INMTW,13.4,C*12
$INDPT,1.8,0.0*4E
$INRMC,112918,A,3702.6924,S,07330.4708,W,0.1,232.6,030313,6.9,E*61
$INDPT,1.7,0.0*41
$INGLL,3702.6924,S,07330.4708,W,112919,A*35
$INVTG,232.6,T,225.7,M,0.3,N,0.5,K*5F
$INMTW,13.4,C*12
$INDPT,1.8,0.0*4E
$INRMC,112920,A,3702.6924,S,07330.4708,W,0.1,232.6,030313,6.9,E*6A
$INDPT,1.8,0.0*4E
$INGGA,112921,3702.6924,S,07330.4708,W,2,10,0.8,0.7,M,,,0.0,0000*26
$INZDA,112921,03,03,2013,-07,00*7A
$INMTW,13.4,C*12
$INDPT,1.8,0.0*4E
$INRMC,112922,A,3702.6924,S,07330.4708,W,0.2,232.6,030313,6.9,E*6B
$INDPT,1.8,0.0*4E
$INGLL,3702.6924,S,07330.4708,W,112923,A*3C
$INVTG,232.6,T,225.7,M,0.4,N,0.7,K*5A
$INMTW,13.4,C*12
$INDPT,1.8,0.0*4E
$INRMC,112924,A,3702.6924,S,07330.4708,W,0.4,232.6,030313,6.9,E*6B
$INDPT,1.9,0.0*4F
$INGGA,112925,3702.6924,S,07330.4708,W,2,10,0.8,0.7,M,,,0.0,0000*22
$INZDA,112925,03,03,2013,-07,00*7E
$INMTW,13.5,C*13
$INDPT,2.2,0.0*47
$INRMC,112926,A,3702.6924,S,07330.4708,W,0.4,265.7,030313,6.9,E*6A
$INDPT,2.2,0.0*47
$INGLL,3702.6924,S,07330.4713,W,112927,A*32
$INVTG,265.7,T,258.8,M,0.6,N,1.0,K*58
$INMTW,13.4,C*12
$INDPT,1.9,0.0*4F
$INRMC,112928,A,3702.6920,S,07330.4713,W,0.3,265.7,030313,6.9,E*6D
$INDPT,1.8,0.0*4E
$INGGA,112929,3702.6920,S,07330.4708,W,2,10,0.8,0.6,M,,,0.0,0000*2B
$INZDA,112929,03,03,2013,-07,00*72
$INMTW,13.5,C*13
$INDPT,3.2,0.0*46
$INRMC,112930,A,3702.6920,S,07330.4708,W,0.2,265.7,030313,6.9,E*6F
$INDPT,1.8,0.0*4E
$INGLL,3702.6920,S,07330.4708,W,112931,A*3B
$INVTG,265.7,T,258.8,M,0.1,N,0.2,K*5C
$INMTW,13.2,C*14
$INDPT,1.8,0.0*4E
$INRMC,112932,A,3702.6920,S,07330.4708,W,0.1,265.7,030313,6.9,E*6E
$INDPT,1.9,0.0*4F
$INGGA,112933,3702.6920,S,07330.4708,W,2,10,0.8,0.5,M,,,0.0,0000*23
$INZDA,112933,03,03,2013,-07,00*79
$INMTW,13.4,C*12
$INDPT,1.9,0.0*4F
$INRMC,112934,A,3702.6920,S,07330.4708,W,0.1,319.8,030313,6.9,E*6D
$INDPT,2.4,0.0*41
$INGLL,3702.6920,S,07330.4708,W,112935,A*3F
$INVTG,319.8,T,312.9,M,0.5,N,1.0,K*50
$INMTW,13.4,C*12
$INDPT,2.1,0.0*44
$INRMC,112936,A,3702.6920,S,07330.4708,W,0.2,319.8,030313,6.9,E*6C
$INDPT,2.4,0.0*41
$INAPB,A,A,0.000,L,N,V,V,77.7,T,S00001,77.7,T,77.7,T*57
$INBWR,112937,3702.6544,S,07330.2562,W,77.7,T,70.8,M,0.176,N,S00001*69
$INGGA,112937,3702.6920,S,07330.4708,W,2,10,0.8,0.6,M,,,0.0,0000*24
$INZDA,112937,03,03,2013,-07,00*7D
$INMTW,13.4,C*12
$INDPT,1.8,0.0*4E
$INRMB,A,0.000,L,START,S00001,3702.6544,S,07330.2562,W,0.176,77.7,-0.1,V*21
$INRMC,112938,A,3702.6920,S,07330.4708,W,0.1,319.8,030313,6.9,E*61
$INDPT,1.8,0.0*4E
$INAPB,A,A,0.000,L,N,V,V,77.7,T,S00001,77.5,T,77.5,T*57
$INBWR,112939,3702.6544,S,07330.2562,W,77.5,T,70.6,M,0.176,N,S00001*6B
$INGLL,3702.6924,S,07330.4708,W,112939,A*37
$INVTG,319.8,T,312.9,M,0.3,N,0.6,K*51
$INMTW,13.5,C*13
$INDPT,1.8,0.0*4E
$INRMB,A,0.000,L,START,S00001,3702.6544,S,07330.2562,W,0.176,77.5,-0.1,V*23
$INRMC,112940,A,3702.6924,S,07330.4708,W,0.2,319.8,030313,6.9,E*69
$INDPT,2.2,0.0*47
$INAPB,A,A,0.000,L,N,V,V,77.7,T,S00001,77.5,T,77.5,T*57
$INBWR,112941,3702.6544,S,07330.2562,W,77.5,T,70.6,M,0.176,N,S00001*64
$INGGA,112941,3702.6924,S,07330.4708,W,2,11,0.8,0.4,M,,,0.0,0000*22
$INZDA,112941,03,03,2013,-07,00*7C
$INMTW,13.5,C*13
$INDPT,1.9,0.0*4F
$INRMB,A,0.000,L,START,S00001,3702.6544,S,07330.2562,W,0.177,77.6,-0.1,V*21
$INRMC,112942,A,3702.6924,S,07330.4713,W,0.1,319.8,030313,6.9,E*62
$INDPT,2.2,0.0*47
$INAPB,A,A,0.000,R,N,V,V,77.7,T,S00001,77.7,T,77.7,T*49
$INBWR,112943,3702.6544,S,07330.2562,W,77.7,T,70.8,M,0.176,N,S00001*6A
$INGLL,3702.6920,S,07330.4713,W,112943,A*34
$INVTG,277.4,T,270.5,M,0.2,N,0.4,K*5E
$INMTW,13.4,C*12
$INDPT,2.3,0.0*46
$INRMB,A,0.000,R,START,S00001,3702.6544,S,07330.2562,W,0.176,77.7,-0.7,V*39
$INRMC,112944,A,3702.6920,S,07330.4713,W,0.7,290.1,030313,6.9,E*6F
$INDPT,2.0,0.0*45
$INAPB,A,A,0.001,R,N,V,V,77.7,T,S00001,77.8,T,77.8,T*48
$INBWR,112945,3702.6544,S,07330.2562,W,77.8,T,70.9,M,0.176,N,S00001*62
$INGGA,112945,3702.6915,S,07330.4713,W,2,11,0.8,0.6,M,,,0.0,0000*2C
$INZDA,112945,03,03,2013,-07,00*78
$INMTW,13.4,C*12
$INDPT,2.4,0.0*41
$INRMB,A,0.001,R,START,S00001,3702.6544,S,07330.2562,W,0.176,77.8,-0.6,V*36
$INRMC,112946,A,3702.6915,S,07330.4713,W,0.7,306.9,030313,6.9,E*6D
$INDPT,2.1,0.0*44
$INAPB,A,A,0.001,R,N,V,V,77.7,T,S00001,77.9,T,77.9,T*48
$INBWR,112947,3702.6544,S,07330.2562,W,77.9,T,71.0,M,0.177,N,S00001*68
$INGLL,3702.6915,S,07330.4718,W,112947,A*3D
$INVTG,306.9,T,300.0,M,0.9,N,1.8,K*51
$INMTW,13.5,C*13
$INDPT,3.0,0.0*44
$INRMB,A,0.001,R,START,S00001,3702.6544,S,07330.2562,W,0.177,78.0,-0.2,V*34
$INRMC,112948,A,3702.6911,S,07330.4718,W,0.3,306.9,030313,6.9,E*68
$INDPT,3.4,0.0*40
$INAPB,A,A,0.001,R,N,V,V,77.7,T,S00001,78.0,T,78.0,T*48
$INBWR,112949,3702.6544,S,07330.2562,W,78.0,T,71.1,M,0.177,N,S00001*61
$INGGA,112949,3702.6911,S,07330.4718,W,2,11,0.8,0.5,M,,,0.0,0000*2C
$INZDA,112949,03,03,2013,-07,00*74
$INMTW,13.6,C*10
$INDPT,2.6,0.0*43
$INRMB,A,0.001,R,START,S00001,3702.6544,S,07330.2562,W,0.177,78.0,-0.1,V*37
$INRMC,112950,A,3702.6911,S,07330.4718,W,0.1,306.9,030313,6.9,E*63
$PUBX,40,RMC,0,1,0,0*46
$PUBX,40,GGA,0,4,0,0*5E
$PUBX,40,GSV,0,0,0,0*59
$PUBX,40,GSA,0,0,0,0*4E
$PUBX,40,VTG,0,0,0,0*5E
$PUBX,40,GLL,0,0,0,0*5C
µb     Ö$INDPT,3.5,0.0*41
$INAPB,A,A,0.001,R,N,V,V,77.7,T,S00001,78.0,T,78.0,T*48
$INBWR,112951,3702.6544,S,07330.2562,W,78.0,T,71.1,M,0.177,N,S00001*68
$INGLL,3702.6911,S,07330.4718,W,112951,A*3E
$INVTG,306.9,T,300.0,M,0.1,N,0.2,K*52
$INMTW,13.4,C*12
$INDPT,3.1,0.0*45
$INRMB,A,0.001,R,START,S00001,3702.6544,S,07330.2562,W,0.177,78.0,-0.0,V*36
$INRMC,112952,A,3702.6911,S,07330.4718,W,0.1,306.9,030313,6.9,E*61
$INDPT,2.3,0.0*46
$INAPB,A,A,0.001,R,N,V,V,77.7,T,S00001,78.0,T,78.0,T*48
$INBWR,112954,3702.6544,S,07330.2562,W,78.0,T,71.1,M,0.177,N,S00001*6D
$INGGA,112954,3702.6911,S,07330.4718,W,2,11,0.8,0.5,M,,,0.0,0000*20
$INZDA,112954,03,03,2013,-07,00*78
$INMTW,13.5,C*13
$INDPT,2.2,0.0*47
$INRMB,A,0.001,R,START,S00001,3702.6544,S,07330.2562,W,0.177,78.0,-0.1,V*37
$INRMC,112955,A,3702.6911,S,07330.4718,W,0.2,306.9,030313,6.9,E*65
$INDPT,2.4,0.0*41
$INAPB,A,A,0.001,R,N,V,V,77.7,T,S00001,78.0,T,78.0,T*48
$INBWR,112956,3702.6544,S,07330.2562,W,78.0,T,71.1,M,0.177,N,S00001*6F
$INGLL,3702.6911,S,07330.4718,W,112956,A*39
$INVTG,323.1,T,316.2,M,0.1,N,0.2,K*58
$INMTW,13.5,C*13
$INDPT,2.2,0.0*47
$INRMB,A,0.001,R,START,S00001,3702.6544,S,07330.2562,W,0.177,78.1,-0.2,V*35
$INRMC,112957,A,3702.6907,S,07330.4718,W,0.8,328.7,030313,6.9,E*68
$INDPT,2.6,0.0*43
$INAPB,A,A,0.001,R,N,V,V,77.7,T,S00001,78.1,T,78.1,T*48
$INBWR,112958,3702.6544,S,07330.2562,W,78.1,T,71.2,M,0.177,N,S00001*63
$INGGA,112958,3702.6907,S,07330.4718,W,2,11,0.8,0.4,M,,,0.0,0000*2A
$INZDA,112958,03,03,2013,-07,00*74
$INMTW,13.5,C*13
$INDPT,3.0,0.0*44
$INRMB,A,0.001,R,START,S00001,3702.6544,S,07330.2562,W,0.177,78.1,-0.2,V*35
$INRMC,112959,A,3702.6907,S,07330.4718,W,0.6,329.1,030313,6.9,E*6F
$INDPT,2.2,0.0*47
$INAPB,A,A,0.001,R,N,V,V,77.7,T,S00001,78.1,T,78.1,T*48
$INBWR,113000,3702.6544,S,07330.2562,W,78.1,T,71.2,M,0.177,N,S00001*66
$INGLL,3702.6902,S,07330.4724,W,113000,A*3F
$INVTG,328.2,T,321.3,M,0.6,N,1.1,K*50
$INMTW,13.5,C*13
$INDPT,1.9,0.0*4F
$INRMB,A,0.002,R,START,S00001,3702.6544,S,07330.2562,W,0.177,78.3,-0.2,V*34
$INRMC,113001,A,3702.6902,S,07330.4724,W,0.6,327.5,030313,6.9,E*6A
$INDPT,2.0,0.0*45
$INAPB,A,A,0.002,R,N,V,V,77.7,T,S00001,78.3,T,78.3,T*4B
$INBWR,113002,3702.6544,S,07330.2562,W,78.3,T,71.4,M,0.177,N,S00001*60
$INGGA,113002,3702.6902,S,07330.4724,W,2,11,0.8,0.5,M,,,0.0,0000*26
$INZDA,113002,03,03,2013,-07,00*73
$INMTW,13.5,C*13
$INDPT,1.9,0.0*4F
$INRMB,A,0.002,R,START,S00001,3702.6544,S,07330.2562,W,0.177,78.3,-0.2,V*34
$INRMC,113003,A,3702.6902,S,07330.4724,W,0.4,331.2,030313,6.9,E*6A
$INDPT,1.8,0.0*4E
$INAPB,A,A,0.002,R,N,V,V,77.7,T,S00001,78.3,T,78.3,T*4B
$INBWR,113004,3702.6544,S,07330.2562,W,78.3,T,71.4,M,0.177,N,S00001*66
$INGLL,3702.6898,S,07330.4724,W,113004,A*39
$INVTG,333.4,T,326.5,M,0.7,N,1.3,K*5E
$INMTW,13.5,C*13
$INDPT,1.8,0.0*4E
$INRMB,A,0.002,R,START,S00001,3702.6544,S,07330.2562,W,0.177,78.4,-0.1,V*30
$INRMC,113005,A,3702.6898,S,07330.4724,W,0.3,333.4,030313,6.9,E*6D
$INDPT,1.9,0.0*4F
$INAPB,A,A,0.002,R,N,V,V,77.7,T,S00001,78.4,T,78.4,T*4B
$INBWR,113006,3702.6544,S,07330.2562,W,78.4,T,71.5,M,0.177,N,S00001*62
$INGGA,113006,3702.6898,S,07330.4724,W,2,11,0.8,0.4,M,,,0.0,0000*21
$INZDA,113006,03,03,2013,-07,00*77
$INMTW,13.6,C*10
$INDPT,1.8,0.0*4E
$INRMB,A,0.002,R,START,S00001,3702.6544,S,07330.2562,W,0.177,78.4,-0.0,V*31
$INRMC,113007,A,3702.6898,S,07330.4724,W,0.1,333.4,030313,6.9,E*6D
$INDPT,1.9,0.0*4F
$INAPB,A,A,0.002,R,N,V,V,77.7,T,S00001,78.4,T,78.4,T*4B
$INBWR,113008,3702.6544,S,07330.2562,W,78.4,T,71.5,M,0.177,N,S00001*6C
$INGLL,3702.6898,S,07330.4724,W,113008,A*35
$INVTG,333.4,T,326.5,M,0.1,N,0.2,K*58
$INMTW,13.6,C*10
$INDPT,1.9,0.0*4F
$INRMB,A,0.002,R,START,S00001,3702.6544,S,07330.2562,W,0.177,78.4,-0.1,V*30
$INRMC,113009,A,3702.6898,S,07330.4724,W,0.2,333.4,030313,6.9,E*60
$INDPT,2.2,0.0*47
$INAPB,A,A,0.003,R,N,V,V,77.7,T,S00001,78.6,T,78.6,T*4A
$INBWR,113010,3702.6544,S,07330.2562,W,78.6,T,71.7,M,0.177,N,S00001*65
$INGGA,113010,3702.6894,S,07330.4724,W,2,11,0.8,0.3,M,,,0.0,0000*2D
$INZDA,113010,03,03,2013,-07,00*70
$INMTW,13.6,C*10
$INDPT,1.9,0.0*4F
$INRMB,A,0.003,R,START,S00001,3702.6544,S,07330.2562,W,0.177,78.6,-0.0,V*32
$INRMC,113011,A,3702.6894,S,07330.4724,W,0.7,346.9,030313,6.9,E*6F
$INDPT,1.8,0.0*4E
$INAPB,A,A,0.003,R,N,V,V,77.7,T,S00001,78.6,T,78.6,T*4A
$INBWR,113012,3702.6544,S,07330.2562,W,78.6,T,71.7,M,0.177,N,S00001*67
$INGLL,3702.6894,S,07330.4724,W,113012,A*32
$INVTG,348.0,T,341.1,M,0.4,N,0.8,K*5A
$INMTW,13.6,C*10
$INDPT,2.0,0.0*45
$INRMB,A,0.003,R,START,S00001,3702.6544,S,07330.2562,W,0.177,78.6,-0.0,V*32
$INRMC,113013,A,3702.6894,S,07330.4724,W,0.3,347.2,030313,6.9,E*63
$INDPT,1.9,0.0*4F
$INAPB,A,A,0.003,R,N,V,V,77.7,T,S00001,78.7,T,78.7,T*4A
$INBWR,113014,3702.6544,S,07330.2562,W,78.7,T,71.8,M,0.177,N,S00001*6F
$INGGA,113014,3702.6889,S,07330.4724,W,2,11,0.8,0.3,M,,,0.0,0000*25
$INZDA,113014,03,03,2013,-07,00*74
$INMTW,13.5,C*13
$INDPT,2.0,0.0*45
$INRMB,A,0.003,R,START,S00001,3702.6544,S,07330.2562,W,0.177,78.7,0.0,V*1E
$INRMC,113015,A,3702.6889,S,07330.4724,W,0.4,348.9,030313,6.9,E*6A
$INDPT,2.0,0.0*45
$INAPB,A,A,0.003,R,N,V,V,77.7,T,S00001,78.7,T,78.7,T*4A
$INBWR,113016,3702.6544,S,07330.2562,W,78.7,T,71.8,M,0.177,N,S00001*6D
$INGLL,3702.6889,S,07330.4724,W,113016,A*3A
$INVTG,347.2,T,340.3,M,0.8,N,1.5,K*54
$INMTW,13.6,C*10
$INDPT,1.9,0.0*4F
$INRMB,A,0.004,R,START,S00001,3702.6544,S,07330.2562,W,0.177,78.9,-0.0,V*3A
$INRMC,113017,A,3702.6885,S,07330.4724,W,0.3,344.4,030313,6.9,E*62
$INDPT,1.8,0.0*4E
$INAPB,A,A,0.004,R,N,V,V,77.7,T,S00001,78.9,T,78.9,T*4D
$INBWR,113018,3702.6544,S,07330.2562,W,78.9,T,72.0,M,0.177,N,S00001*66
$INGGA,113018,3702.6885,S,07330.4724,W,2,11,0.8,0.2,M,,,0.0,0000*24
$INZDA,113018,03,03,2013,-07,00*78
$INMTW,13.5,C*13
$INDPT,1.7,0.0*41
$INRMB,A,0.004,R,START,S00001,3702.6544,S,07330.2562,W,0.177,78.9,-0.0,V*3A
$INRMC,113019,A,3702.6885,S,07330.4724,W,0.4,343.5,030313,6.9,E*6D
$INDPT,1.8,0.0*4E
$INAPB,A,A,0.004,R,N,V,V,77.7,T,S00001,78.9,T,78.9,T*4D
$INBWR,113020,3702.6544,S,07330.2562,W,78.9,T,72.0,M,0.177,N,S00001*6D
$INGLL,3702.6885,S,07330.4724,W,113020,A*33
$INVTG,343.5,T,336.6,M,0.2,N,0.4,K*59
$INMTW,13.5,C*13
$INDPT,1.8,0.0*4E
$INRMB,A,0.004,R,START,S00001,3702.6544,S,07330.2562,W,0.177,78.9,-0.0,V*3A
$INRMC,113021,A,3702.6885,S,07330.4724,W,0.2,343.5,030313,6.9,E*60
$INDPT,1.8,0.0*4E
$INAPB,A,A,0.004,R,N,V,V,77.7,T,S00001,79.0,T,79.0,T*4D
$INBWR,113022,3702.6544,S,07330.2562,W,79.0,T,72.1,M,0.176,N,S00001*67
$INGGA,113022,3702.6881,S,07330.4724,W,2,11,0.8,0.4,M,,,0.0,0000*2F
$INZDA,113022,03,03,2013,-07,00*71
$INMTW,13.6,C*10
$INDPT,1.8,0.0*4E
$INRMB,A,0.004,R,START,S00001,3702.6544,S,07330.2562,W,0.176,79.0,0.6,V*18
$INRMC,113023,A,3702.6881,S,07330.4718,W,0.9,24.4,030313,6.9,E*51
$INDPT,1.8,0.0*4E
$INAPB,A,A,0.004,R,N,V,V,77.7,T,S00001,79.1,T,79.1,T*4D
$INBWR,113024,3702.6544,S,07330.2562,W,79.1,T,72.2,M,0.176,N,S00001*63
$INGLL,3702.6876,S,07330.4718,W,113024,A*34
$INVTG,29.1,T,22.2,M,1.3,N,2.4,K*52
$INMTW,13.5,C*13
$INDPT,1.9,0.0*4F
$INRMB,A,0.005,R,START,S00001,3702.6544,S,07330.2562,W,0.175,79.2,1.7,V*18
$INRMC,113025,A,3702.6872,S,07330.4713,W,2.1,45.6,030313,6.9,E*5F
$INDPT,1.9,0.0*4F
$INAPB,A,A,0.005,R,N,V,V,77.7,T,S00001,79.3,T,79.3,T*4C
$INBWR,113026,3702.6544,S,07330.2562,W,79.3,T,72.4,M,0.175,N,S00001*66
$INGGA,113026,3702.6868,S,07330.4708,W,2,11,0.8,0.8,M,,,0.0,0000*2E
$INZDA,113026,03,03,2013,-07,00*75
$INMTW,13.6,C*10
$INDPT,1.9,0.0*4F
$INRMB,A,0.005,R,START,S00001,3702.6544,S,07330.2562,W,0.174,79.4,2.5,V*1E
$INRMC,113027,A,3702.6863,S,07330.4697,W,2.8,54.9,030313,6.9,E*56
$INDPT,2.6,0.0*43
$INAPB,A,A,0.005,R,N,V,V,77.7,T,S00001,79.4,T,79.4,T*4C
$INBWR,113028,3702.6544,S,07330.2562,W,79.4,T,72.5,M,0.174,N,S00001*6F
$INGLL,3702.6859,S,07330.4691,W,113028,A*35
$INVTG,64.2,T,57.3,M,2.8,N,5.2,K*52
$INMTW,13.6,C*10
$INDPT,2.0,0.0*45
$INRMB,A,0.006,R,START,S00001,3702.6544,S,07330.2562,W,0.173,79.6,2.5,V*18
$INRMC,113029,A,3702.6855,S,07330.4681,W,2.6,59.8,030313,6.9,E*58
$INDPT,2.1,0.0*44
$INAPB,A,A,0.006,R,N,V,V,77.7,T,S00001,79.6,T,79.6,T*4F
$INBWR,113030,3702.6544,S,07330.2562,W,79.6,T,72.7,M,0.172,N,S00001*60
$INGGA,113030,3702.6855,S,07330.4675,W,2,11,0.8,1.2,M,,,0.0,0000*27
$INZDA,113030,03,03,2013,-07,00*72
$INMTW,13.6,C*10
$INDPT,2.0,0.0*45
$INRMB,A,0.006,R,START,S00001,3702.6544,S,07330.2562,W,0.171,79.7,2.8,V*16
$INRMC,113031,A,3702.6850,S,07330.4664,W,2.9,85.5,030313,6.9,E*5C
$INDPT,1.7,0.0*41
$INAPB,A,A,0.006,R,N,V,V,77.7,T,S00001,79.5,T,79.5,T*4F
$INBWR,113032,3702.6544,S,07330.2562,W,79.5,T,72.6,M,0.171,N,S00001*63
$INGLL,3702.6855,S,07330.4659,W,113032,A*36
$INVTG,115.1,T,108.2,M,2.8,N,5.1,K*5F
$INMTW,13.5,C*13
$INDPT,2.0,0.0*45
$INRMB,A,0.005,R,START,S00001,3702.6544,S,07330.2562,W,0.170,79.5,2.4,V*1A
$INRMC,113033,A,3702.6855,S,07330.4648,W,3.1,120.1,030313,6.9,E*66
$INDPT,1.7,0.0*41
$INAPB,A,A,0.004,R,N,V,V,77.7,T,S00001,79.1,T,79.1,T*4D
$INBWR,113034,3702.6544,S,07330.2562,W,79.1,T,72.2,M,0.169,N,S00001*6C
$INGGA,113034,3702.6863,S,07330.4637,W,2,11,0.8,1.2,M,,,0.0,0000*20
$INZDA,113034,03,03,2013,-07,00*76
$INMTW,13.6,C*10
$INDPT,1.6,0.0*40
$INRMB,A,0.004,R,START,S00001,3702.6544,S,07330.2562,W,0.169,78.9,2.1,V*1B
$INRMC,113035,A,3702.6868,S,07330.4632,W,3.5,134.7,030313,6.9,E*64
$INDPT,1.8,0.0*4E
$INAPB,A,A,0.003,R,N,V,V,77.7,T,S00001,78.7,T,78.7,T*4A
$INBWR,113036,3702.6544,S,07330.2562,W,78.7,T,71.8,M,0.168,N,S00001*61
$INGLL,3702.6876,S,07330.4621,W,113036,A*3C
$INVTG,135.8,T,128.9,M,3.7,N,6.8,K*59
$INMTW,13.7,C*11
$INDPT,1.8,0.0*4E
$INRMB,A,0.002,R,START,S00001,3702.6544,S,07330.2562,W,0.168,78.4,1.9,V*1A
$INRMC,113037,A,3702.6885,S,07330.4611,W,3.8,140.5,030313,6.9,E*68
$INDPT,1.8,0.0*4E
$INAPB,A,A,0.001,R,N,V,V,77.7,T,S00001,78.1,T,78.1,T*48
$INBWR,113038,3702.6544,S,07330.2562,W,78.1,T,71.2,M,0.167,N,S00001*6C
$INGGA,113038,3702.6894,S,07330.4605,W,2,11,0.8,1.2,M,,,0.0,0000*25
$INZDA,113038,03,03,2013,-07,00*7A
$INMTW,13.6,C*10
$INDPT,1.9,0.0*4F
$INRMB,A,0.000,R,START,S00001,3702.6544,S,07330.2562,W,0.167,77.8,1.6,V*1B
$INRMC,113039,A,3702.6902,S,07330.4594,W,4.1,145.1,030313,6.9,E*69
$INDPT,1.9,0.0*4F
$INAPB,A,A,0.001,L,N,V,V,77.7,T,S00001,77.3,T,77.3,T*56
$INBWR,113040,3702.6544,S,07330.2562,W,77.3,T,70.4,M,0.167,N,S00001*69
$INGLL,3702.6911,S,07330.4589,W,113040,A*3C
$INVTG,148.3,T,141.4,M,3.9,N,7.3,K*5E
$INMTW,13.6,C*10
$INDPT,1.8,0.0*4E
$INRMB,A,0.002,L,START,S00001,3702.6544,S,07330.2562,W,0.166,76.9,1.1,V*01
$INRMC,113041,A,3702.6920,S,07330.4584,W,3.9,151.4,030313,6.9,E*68
$INDPT,2.2,0.0*47
$INAPB,A,A,0.003,L,N,V,V,77.7,T,S00001,76.6,T,76.6,T*54
$INBWR,113042,3702.6544,S,07330.2562,W,76.6,T,69.7,M,0.166,N,S00001*65
$INGGA,113042,3702.6933,S,07330.4578,W,2,11,0.8,1.2,M,,,0.0,0000*2D
$INZDA,113042,03,03,2013,-07,00*77
$INMTW,13.6,C*10
$INDPT,1.8,0.0*4E
$INRMB,A,0.004,L,START,S00001,3702.6544,S,07330.2562,W,0.166,76.1,0.5,V*0A
$INRMC,113043,A,3702.6945,S,07330.4573,W,4.2,159.9,030313,6.9,E*68
$INDPT,1.8,0.0*4E
$INAPB,A,A,0.006,L,N,V,V,77.7,T,S00001,75.7,T,75.7,T*51
$INBWR,113044,3702.6544,S,07330.2562,W,75.7,T,68.8,M,0.166,N,S00001*6F
$INGLL,3702.6954,S,07330.4567,W,113044,A*39
$INVTG,158.2,T,151.3,M,4.6,N,8.5,K*59
$INMTW,13.6,C*10
$INDPT,1.9,0.0*4F
$INRMB,A,0.007,L,START,S00001,3702.6544,S,07330.2562,W,0.166,75.2,0.7,V*0B
$INRMC,113045,A,3702.6967,S,07330.4557,W,4.8,156.6,030313,6.9,E*62
$INDPT,1.8,0.0*4E
$INAPB,A,A,0.009,L,N,V,V,77.7,T,S00001,74.7,T,74.7,T*5E
$INBWR,113046,3702.6544,S,07330.2562,W,74.7,T,67.8,M,0.165,N,S00001*60
$INGGA,113046,3702.6980,S,07330.4551,W,2,11,0.8,1.2,M,,,0.0,0000*2A
$INZDA,113046,03,03,2013,-07,00*73
$INMTW,13.7,C*11
$INDPT,2.0,0.0*45
$INRMB,A,0.010,L,START,S00001,3702.6544,S,07330.2562,W,0.165,74.2,0.8,V*00
$INRMC,113047,A,3702.6997,S,07330.4546,W,5.4,156.1,030313,6.9,E*65
$INDPT,1.8,0.0*4E
$INAPB,A,A,0.011,L,N,V,V,77.7,T,S00001,73.7,T,73.7,T*57
$INBWR,113048,3702.6544,S,07330.2562,W,73.7,T,66.8,M,0.165,N,S00001*68
$INGLL,3702.7010,S,07330.4535,W,113048,A*3A
$INVTG,156.9,T,150.0,M,5.5,N,10.1,K*61
$INMTW,13.5,C*13
$INDPT,2.3,0.0*46
$INRMB,A,0.013,L,START,S00001,3702.6544,S,07330.2562,W,0.165,73.2,0.7,V*0B
$INRMC,113048,A,3702.7019,S,07330.4530,W,5.4,156.2,030313,6.9,E*66
$INDPT,1.8,0.0*4E
$INAPB,A,A,0.014,L,N,V,V,77.7,T,S00001,72.8,T,72.8,T*52
$INBWR,113049,3702.6544,S,07330.2562,W,72.8,T,65.9,M,0.165,N,S00001*65
$INGGA,113049,3702.7032,S,07330.4524,W,2,11,0.8,1.2,M,,,0.0,0000*26
$INZDA,113049,03,03,2013,-07,00*7C
$INMTW,13.6,C*10
$INDPT,1.9,0.0*4F
$INRMB,A,0.014,L,START,S00001,3702.6544,S,07330.2562,W,0.165,72.8,0.6,V*06
$INRMC,113050,A,3702.7049,S,07330.4519,W,5.3,155.8,030313,6.9,E*6F
$INDPT,2.2,0.0*47
$INAPB,A,A,0.017,L,N,V,V,77.7,T,S00001,71.6,T,71.6,T*51
$INBWR,113051,3702.6544,S,07330.2562,W,71.6,T,64.7,M,0.164,N,S00001*6F
$INGLL,3702.7062,S,07330.4508,W,113051,A*39
$INVTG,158.1,T,151.2,M,5.2,N,9.6,K*5C
$INMTW,13.6,C*10
$INDPT,2.0,0.0*45
$INRMB,A,0.019,L,START,S00001,3702.6544,S,07330.2562,W,0.164,71.1,-0.1,V*2A
$INRMC,113052,A,3702.7075,S,07330.4503,W,4.8,162.6,030313,6.9,E*69
$INDPT,1.9,0.0*4F
$INAPB,A,A,0.020,L,N,V,V,77.7,T,S00001,70.7,T,70.7,T*55
$INBWR,113053,3702.6544,S,07330.2562,W,70.7,T,63.8,M,0.164,N,S00001*65
$INGGA,113053,3702.7088,S,07330.4497,W,2,11,0.8,1.2,M,,,0.0,0000*25
$INZDA,113053,03,03,2013,-07,00*77
$INMTW,13.6,C*10
$INDPT,1.8,0.0*4E
$INRMB,A,0.021,L,START,S00001,3702.6544,S,07330.2562,W,0.164,70.2,-0.0,V*22
$INRMC,113054,A,3702.7101,S,07330.4492,W,4.8,160.7,030313,6.9,E*67
$INDPT,1.8,0.0*4E
$INAPB,A,A,0.023,L,N,V,V,77.7,T,S00001,69.7,T,69.7,T*56
$INBWR,113055,3702.6544,S,07330.2562,W,69.7,T,62.8,M,0.164,N,S00001*6A
$INGLL,3702.7114,S,07330.4487,W,113055,A*3B
$INVTG,155.2,T,148.3,M,5.1,N,9.5,K*5B
$INMTW,13.7,C*11
$INDPT,1.8,0.0*4E
$INRMB,A,0.024,L,START,S00001,3702.6544,S,07330.2562,W,0.164,69.2,0.2,V*00
$INRMC,113056,A,3702.7127,S,07330.4481,W,5.3,157.6,030313,6.9,E*6C
$INDPT,1.9,0.0*4F
$INAPB,A,A,0.024,L,N,V,V,77.7,T,S00001,69.2,T,69.2,T*51
$INBWR,113057,3702.6544,S,07330.2562,W,69.2,T,62.3,M,0.164,N,S00001*66
$INGGA,113057,3702.7140,S,07330.4476,W,2,11,0.8,0.7,M,,,0.0,0000*2F
$INZDA,113057,03,03,2013,-07,00*73
$INMTW,13.6,C*10
$INDPT,1.9,0.0*4F
$INRMB,A,0.025,L,START,S00001,3702.6544,S,07330.2562,W,0.165,68.8,0.0,V*09
$INRMC,113058,A,3702.7153,S,07330.4465,W,5.2,160.8,030313,6.9,E*60
$INDPT,1.9,0.0*4F
$INAPB,A,A,0.027,L,N,V,V,77.7,T,S00001,68.2,T,68.2,T*52
$INBWR,113059,3702.6544,S,07330.2562,W,68.2,T,61.3,M,0.164,N,S00001*6A
$INGLL,3702.7166,S,07330.4460,W,113059,A*3B
$INVTG,158.9,T,152.0,M,5.2,N,9.7,K*54
$INMTW,13.6,C*10
$INDPT,1.9,0.0*4F
$INRMB,A,0.030,L,START,S00001,3702.6544,S,07330.2562,W,0.165,67.1,-0.3,V*25
$INRMC,113100,A,3702.7183,S,07330.4454,W,5.3,160.1,030313,6.9,E*6B
$INDPT,2.2,0.0*47
$INAPB,A,A,0.031,L,N,V,V,77.7,T,S00001,66.7,T,66.7,T*55
$INBWR,113101,3702.6544,S,07330.2562,W,66.7,T,59.8,M,0.165,N,S00001*6C
$INGGA,113101,3702.7196,S,07330.4449,W,2,11,0.8,0.6,M,,,0.0,0000*2B
$INZDA,113101,03,03,2013,-07,00*71
$INMTW,13.5,C*13
$INDPT,2.0,0.0*45
$INRMB,A,0.032,L,START,S00001,3702.6544,S,07330.2562,W,0.165,66.3,-0.1,V*26
$INRMC,113102,A,3702.7205,S,07330.4443,W,4.5,158.4,030313,6.9,E*6B
$INDPT,2.2,0.0*47
$INAPB,A,A,0.034,L,N,V,V,77.7,T,S00001,65.9,T,65.9,T*50
$INBWR,113103,3702.6544,S,07330.2562,W,65.9,T,59.0,M,0.165,N,S00001*6B
$INGLL,3702.7218,S,07330.4438,W,113103,A*32
$INVTG,159.7,T,152.8,M,3.9,N,7.3,K*54
$INMTW,13.5,C*13
$INDPT,2.0,0.0*45
$INRMB,A,0.035,L,START,S00001,3702.6544,S,07330.2562,W,0.165,65.5,-0.2,V*27
$INRMC,113104,A,3702.7226,S,07330.4433,W,3.8,158.2,030313,6.9,E*67
$INDPT,2.0,0.0*45
$INAPB,A,A,0.036,L,N,V,V,77.7,T,S00001,65.2,T,65.2,T*52
$INBWR,113105,3702.6544,S,07330.2562,W,65.2,T,58.3,M,0.165,N,S00001*64
$INGGA,113105,3702.7235,S,07330.4427,W,2,11,0.8,0.8,M,,,0.0,0000*23
$INZDA,113105,03,03,2013,-07,00*75
$INMTW,13.7,C*11
$INDPT,2.0,0.0*45
$INRMB,A,0.037,L,START,S00001,3702.6544,S,07330.2562,W,0.165,64.7,0.0,V*09
$INRMC,113106,A,3702.7248,S,07330.4422,W,4.2,154.2,030313,6.9,E*6C
$INDPT,1.9,0.0*4F
$INAPB,A,A,0.038,L,N,V,V,77.7,T,S00001,64.4,T,64.4,T*5C
$INBWR,113107,3702.6544,S,07330.2562,W,64.4,T,57.5,M,0.165,N,S00001*68
$INGLL,3702.7257,S,07330.4417,W,113107,A*30
$INVTG,153.2,T,146.3,M,4.6,N,8.5,K*54
$INMTW,13.6,C*10
$INDPT,1.9,0.0*4F
$INRMB,A,0.039,L,START,S00001,3702.6544,S,07330.2562,W,0.165,63.9,0.0,V*0E
$INRMC,113108,A,3702.7269,S,07330.4411,W,4.7,153.9,030313,6.9,E*68
$INDPT,2.3,0.0*46
$INAPB,A,A,0.041,L,N,V,V,77.7,T,S00001,63.4,T,63.4,T*52
$INBWR,113109,3702.6544,S,07330.2562,W,63.4,T,56.5,M,0.165,N,S00001*60
$INGGA,113109,3702.7282,S,07330.4400,W,2,11,0.8,1.0,M,,,0.0,0000*2F
$INZDA,113109,03,03,2013,-07,00*79
$INMTW,13.7,C*11
$INDPT,2.0,0.0*45
$INRMB,A,0.042,L,START,S00001,3702.6544,S,07330.2562,W,0.165,63.0,-0.2,V*24
$INRMC,113110,A,3702.7291,S,07330.4395,W,4.7,156.1,030313,6.9,E*60
$INDPT,1.9,0.0*4F
$INAPB,A,A,0.043,L,N,V,V,77.7,T,S00001,62.6,T,62.6,T*50
$INBWR,113111,3702.6544,S,07330.2562,W,62.6,T,55.7,M,0.165,N,S00001*6B
$INGLL,3702.7304,S,07330.4390,W,113111,A*38
$INVTG,153.5,T,146.6,M,4.9,N,9.1,K*5C
$INMTW,13.5,C*13
$INDPT,2.0,0.0*45
$INRMB,A,0.044,L,START,S00001,3702.6544,S,07330.2562,W,0.165,62.0,-0.4,V*25
$INRMC,113112,A,3702.7317,S,07330.4379,W,4.8,156.3,030313,6.9,E*62
$INDPT,2.0,0.0*45
$INAPB,A,A,0.046,L,N,V,V,77.7,T,S00001,61.6,T,61.6,T*55
$INBWR,113113,3702.6544,S,07330.2562,W,61.6,T,54.7,M,0.165,N,S00001*6B
$INGGA,113113,3702.7330,S,07330.4373,W,2,11,0.8,1.2,M,,,0.0,0000*2D
$INZDA,113113,03,03,2013,-07,00*72
$INMTW,13.6,C*10
$INDPT,2.3,0.0*46
$INRMB,A,0.047,L,START,S00001,3702.6544,S,07330.2562,W,0.165,61.2,-0.1,V*22
$INRMC,113114,A,3702.7339,S,07330.4368,W,3.9,152.0,030313,6.9,E*69
$INDPT,2.0,0.0*45
$INAPB,A,A,0.048,L,N,V,V,77.7,T,S00001,60.9,T,60.9,T*5B
$INBWR,113115,3702.6544,S,07330.2562,W,60.9,T,54.0,M,0.165,N,S00001*64
$INGLL,3702.7347,S,07330.4363,W,113115,A*37
$INVTG,153.1,T,146.2,M,3.7,N,6.8,K*53
$INMTW,13.6,C*10
$INDPT,1.8,0.0*4E
$INRMB,A,0.049,L,START,S00001,3702.6544,S,07330.2562,W,0.165,60.4,-0.2,V*28
$INRMC,113116,A,3702.7360,S,07330.4357,W,4.5,153.3,030313,6.9,E*62
$INDPT,2.2,0.0*47
$INAPB,A,A,0.050,L,N,V,V,77.7,T,S00001,60.0,T,60.0,T*52
$INBWR,113117,3702.6544,S,07330.2562,W,60.0,T,53.1,M,0.165,N,S00001*69
$INGGA,113117,3702.7369,S,07330.4346,W,2,11,0.8,1.2,M,,,0.0,0000*23
$INZDA,113117,03,03,2013,-07,00*76
$INMTW,13.6,C*10
$INDPT,1.9,0.0*4F
$INRMB,A,0.051,L,START,S00001,3702.6544,S,07330.2562,W,0.165,59.5,-0.3,V*2B
$INRMC,113118,A,3702.7382,S,07330.4341,W,4.7,153.3,030313,6.9,E*65
$INDPT,1.8,0.0*4E
$INAPB,A,A,0.053,L,N,V,V,77.7,T,S00001,59.1,T,59.1,T*51
$INBWR,113119,3702.6544,S,07330.2562,W,59.1,T,52.2,M,0.166,N,S00001*6D
$INGLL,3702.7395,S,07330.4336,W,113119,A*34
$INVTG,155.1,T,148.2,M,4.5,N,8.3,K*5B
$INMTW,13.6,C*10
$INDPT,1.9,0.0*4F
$INRMB,A,0.054,L,START,S00001,3702.6544,S,07330.2562,W,0.165,58.7,-0.5,V*2B
$INRMC,113120,A,3702.7403,S,07330.4325,W,4.5,154.4,030313,6.9,E*60
$INDPT,2.2,0.0*47
$INAPB,A,A,0.054,L,N,V,V,77.7,T,S00001,58.7,T,58.7,T*56
$INBWR,113121,3702.6544,S,07330.2562,W,58.7,T,51.8,M,0.165,N,S00001*6B
$INGGA,113121,3702.7416,S,07330.4320,W,2,11,0.8,1.3,M,,,0.0,0000*28
$INZDA,113121,03,03,2013,-07,00*73
$INMTW,13.5,C*13
$INDPT,2.0,0.0*45
$INRMB,A,0.055,L,START,S00001,3702.6544,S,07330.2562,W,0.166,58.2,-0.4,V*2D
$INRMC,113122,A,3702.7429,S,07330.4314,W,4.5,154.3,030313,6.9,E*6F
$INDPT,2.0,0.0*45
$INAPB,A,A,0.058,L,N,V,V,77.7,T,S00001,57.3,T,57.3,T*5A
$INBWR,113123,3702.6544,S,07330.2562,W,57.3,T,50.4,M,0.166,N,S00001*6C
$INGLL,3702.7438,S,07330.4303,W,113123,A*3B
$INVTG,153.3,T,146.4,M,4.5,N,8.4,K*50
$INMTW,13.6,C*10
$INDPT,2.1,0.0*44
$INRMB,A,0.059,L,START,S00001,3702.6544,S,07330.2562,W,0.166,56.9,-0.5,V*25
$INRMC,113124,A,3702.7451,S,07330.4298,W,4.7,154.1,030313,6.9,E*63
$INDPT,2.2,0.0*47
$INAPB,A,A,0.060,L,N,V,V,77.7,T,S00001,56.6,T,56.6,T*51
$INBWR,113125,3702.6544,S,07330.2562,W,56.6,T,49.7,M,0.166,N,S00001*65
$INGGA,113125,3702.7460,S,07330.4293,W,2,11,0.8,1.6,M,,,0.0,0000*21
$INZDA,113125,03,03,2013,-07,00*77
$INMTW,13.6,C*10
$INDPT,2.5,0.0*40
$INRMB,A,0.061,L,START,S00001,3702.6544,S,07330.2562,W,0.167,56.1,-0.4,V*26
$INRMC,113126,A,3702.7473,S,07330.4287,W,4.3,151.5,030313,6.9,E*6A
$INDPT,2.1,0.0*44
$INAPB,A,A,0.062,L,N,V,V,77.7,T,S00001,55.7,T,55.7,T*53
$INBWR,113127,3702.6544,S,07330.2562,W,55.7,T,48.8,M,0.166,N,S00001*6B
$INGLL,3702.7481,S,07330.4276,W,113127,A*3E
$INVTG,150.1,T,143.2,M,4.6,N,8.5,K*50
$INMTW,13.7,C*11
$INDPT,2.0,0.0*45
$INRMB,A,0.064,L,START,S00001,3702.6544,S,07330.2562,W,0.167,55.2,-0.4,V*23
$INRMC,113128,A,3702.7494,S,07330.4271,W,4.5,149.6,030313,6.9,E*68
$INDPT,2.1,0.0*44
$INAPB,A,A,0.065,L,N,V,V,77.7,T,S00001,54.8,T,54.8,T*54
$INBWR,113129,3702.6544,S,07330.2562,W,54.8,T,47.9,M,0.166,N,S00001*65
$INGGA,113129,3702.7503,S,07330.4260,W,2,11,0.8,1.5,M,,,0.0,0000*26
$INZDA,113129,03,03,2013,-07,00*7B
$INMTW,13.7,C*11
$INDPT,2.1,0.0*44
$INRMB,A,0.066,L,START,S00001,3702.6544,S,07330.2562,W,0.167,54.4,-0.6,V*24
$INRMC,113130,A,3702.7516,S,07330.4255,W,4.8,151.7,030313,6.9,E*69
$INDPT,2.2,0.0*47
$INAPB,A,A,0.067,L,N,V,V,77.7,T,S00001,53.8,T,53.8,T*56
$INBWR,113131,3702.6544,S,07330.2562,W,53.8,T,46.9,M,0.167,N,S00001*6B
$INGLL,3702.7529,S,07330.4244,W,113131,A*3B
$INVTG,152.4,T,145.5,M,4.9,N,9.1,K*5C
$INMTW,13.6,C*10
$INDPT,2.2,0.0*47
$INRMB,A,0.069,L,START,S00001,3702.6544,S,07330.2562,W,0.167,53.4,-1.0,V*2B
$INRMC,113132,A,3702.7542,S,07330.4239,W,4.8,155.4,030313,6.9,E*67
$INDPT,2.4,0.0*41
$INAPB,A,A,0.070,L,N,V,V,77.7,T,S00001,53.0,T,53.0,T*50
$INBWR,113133,3702.6544,S,07330.2562,W,53.0,T,46.1,M,0.168,N,S00001*66
$INGGA,113133,3702.7555,S,07330.4233,W,2,11,0.8,1.6,M,,,0.0,0000*2B
$INZDA,113133,03,03,2013,-07,00*70
$INMTW,13.6,C*10
$INDPT,2.4,0.0*41
$INRMB,A,0.071,L,START,S00001,3702.6544,S,07330.2562,W,0.168,52.5,-1.2,V*2F
$INRMC,113134,A,3702.7563,S,07330.4222,W,4.1,158.4,030313,6.9,E*6C
$INDPT,2.3,0.0*46
$INAPB,A,A,0.073,L,N,V,V,77.7,T,S00001,52.1,T,52.1,T*53
$INBWR,113135,3702.6544,S,07330.2562,W,52.1,T,45.2,M,0.168,N,S00001*60
$INGLL,3702.7576,S,07330.4217,W,113135,A*33
$INVTG,154.5,T,147.6,M,4.5,N,8.4,K*52
$INMTW,13.7,C*11
$INDPT,2.3,0.0*46
$INRMB,A,0.073,L,START,S00001,3702.6544,S,07330.2562,W,0.168,51.8,-1.2,V*23
$INRMC,113136,A,3702.7585,S,07330.4212,W,4.7,155.4,030313,6.9,E*6E
$INDPT,2.2,0.0*47
$INAPB,A,A,0.075,L,N,V,V,77.7,T,S00001,51.3,T,51.3,T*55
$INBWR,113137,3702.6544,S,07330.2562,W,51.3,T,44.4,M,0.169,N,S00001*65
$INGGA,113137,3702.7598,S,07330.4206,W,2,11,0.8,1.6,M,,,0.0,0000*28
$INZDA,113137,03,03,2013,-07,00*74
$INMTW,13.6,C*10
$INDPT,2.4,0.0*41
$INRMB,A,0.075,L,START,S00001,3702.6544,S,07330.2562,W,0.169,51.3,-1.0,V*2D
$INRMC,113138,A,3702.7611,S,07330.4196,W,4.5,152.8,030313,6.9,E*68
$INDPT,2.4,0.0*41
$INAPB,A,A,0.077,L,N,V,V,77.7,T,S00001,50.5,T,50.5,T*57
$INBWR,113139,3702.6544,S,07330.2562,W,50.5,T,43.6,M,0.169,N,S00001*69
$INGLL,3702.7619,S,07330.4190,W,113139,A*39
$INVTG,149.9,T,143.0,M,4.5,N,8.4,K*50
$INMTW,13.6,C*10
$INDPT,2.4,0.0*41
$INRMB,A,0.078,L,START,S00001,3702.6544,S,07330.2562,W,0.169,50.2,-0.6,V*27
$INRMC,113140,A,3702.7632,S,07330.4179,W,4.6,147.3,030313,6.9,E*6B
$INDPT,2.3,0.0*46
$INAPB,A,A,0.080,L,N,V,V,77.7,T,S00001,49.7,T,49.7,T*5F
$INBWR,113141,3702.6544,S,07330.2562,W,49.7,T,42.8,M,0.169,N,S00001*63
$INGGA,113141,3702.7645,S,07330.4174,W,2,11,0.8,1.5,M,,,0.0,0000*2F
$INZDA,113141,03,03,2013,-07,00*75
$INMTW,13.5,C*13
$INDPT,2.3,0.0*46
$INRMB,A,0.080,L,START,S00001,3702.6544,S,07330.2562,W,0.169,49.7,-0.6,V*2D
$INRMC,113142,A,3702.7654,S,07330.4163,W,4.8,148.6,030313,6.9,E*66
$INDPT,2.4,0.0*41
$INAPB,A,A,0.082,L,N,V,V,77.7,T,S00001,48.8,T,48.8,T*5D
$INBWR,113143,3702.6544,S,07330.2562,W,48.8,T,41.9,M,0.170,N,S00001*65
$INGLL,3702.7667,S,07330.4158,W,113143,A*39
$INVTG,149.5,T,142.6,M,4.8,N,8.8,K*5A
$INMTW,13.6,C*10
$INDPT,2.4,0.0*41
$INRMB,A,0.083,L,START,S00001,3702.6544,S,07330.2562,W,0.170,48.3,-0.8,V*2D
$INRMC,113144,A,3702.7680,S,07330.4147,W,4.8,149.2,030313,6.9,E*6A
$INDPT,2.6,0.0*43
$INAPB,A,A,0.084,L,N,V,V,77.7,T,S00001,48.0,T,48.0,T*5B
$INBWR,113145,3702.6544,S,07330.2562,W,48.0,T,41.1,M,0.170,N,S00001*63
$INGGA,113145,3702.7689,S,07330.4142,W,2,11,0.8,1.4,M,,,0.0,0000*2F
$INZDA,113145,03,03,2013,-07,00*71
$INMTW,13.6,C*10
$INDPT,2.4,0.0*41
$INRMB,A,0.086,L,START,S00001,3702.6544,S,07330.2562,W,0.171,47.6,-0.6,V*2D
$INRMC,113146,A,3702.7697,S,07330.4131,W,4.3,146.1,030313,6.9,E*68
$INDPT,2.3,0.0*46
$INAPB,A,A,0.087,L,N,V,V,77.7,T,S00001,47.2,T,47.2,T*58
$INBWR,113147,3702.6544,S,07330.2562,W,47.2,T,40.3,M,0.171,N,S00001*6E
$INGLL,3702.7710,S,07330.4125,W,113147,A*36
$INVTG,148.9,T,142.0,M,4.7,N,8.7,K*51
$INMTW,13.5,C*13
$INDPT,2.4,0.0*41
$INRMB,A,0.088,L,START,S00001,3702.6544,S,07330.2562,W,0.171,46.6,-1.0,V*25
$INRMC,113148,A,3702.7719,S,07330.4115,W,4.6,148.2,030313,6.9,E*6F
$INDPT,2.4,0.0*41
$INAPB,A,A,0.089,L,N,V,V,77.7,T,S00001,46.3,T,46.3,T*56
$INBWR,113149,3702.6544,S,07330.2562,W,46.3,T,39.4,M,0.171,N,S00001*69
$INGGA,113149,3702.7727,S,07330.4109,W,2,11,0.8,1.3,M,,,0.0,0000*2E
$INZDA,113149,03,03,2013,-07,00*7D
$INMTW,13.6,C*10
$INDPT,2.4,0.0*41
$INRMB,A,0.091,L,START,S00001,3702.6544,S,07330.2562,W,0.172,45.8,-0.7,V*25
$INRMC,113150,A,3702.7740,S,07330.4099,W,5.0,144.6,030313,6.9,E*60
$INDPT,2.3,0.0*46
$INAPB,A,A,0.092,L,N,V,V,77.7,T,S00001,45.5,T,45.5,T*5C
$INBWR,113151,3702.6544,S,07330.2562,W,45.5,T,38.6,M,0.172,N,S00001*65
$INGLL,3702.7749,S,07330.4093,W,113151,A*31
$INVTG,148.7,T,141.8,M,4.8,N,8.8,K*54
$INMTW,13.6,C*10
$INDPT,2.3,0.0*46
$INRMB,A,0.093,L,START,S00001,3702.6544,S,07330.2562,W,0.172,45.0,-1.1,V*28
$INRMC,113152,A,3702.7762,S,07330.4082,W,4.8,147.3,030313,6.9,E*67
$INDPT,2.1,0.0*44
$INAPB,A,A,0.094,L,N,V,V,77.7,T,S00001,44.6,T,44.6,T*5A
$INBWR,113153,3702.6544,S,07330.2562,W,44.6,T,37.7,M,0.172,N,S00001*6B
$INGGA,113153,3702.7771,S,07330.4072,W,2,11,0.8,1.1,M,,,0.0,0000*29
$INZDA,113153,03,03,2013,-07,00*76
$INMTW,13.5,C*13
$INDPT,2.1,0.0*44
$INRMB,A,0.095,L,START,S00001,3702.6544,S,07330.2562,W,0.173,44.1,-1.1,V*2F
$INRMC,113154,A,3702.7784,S,07330.4061,W,4.7,148.4,030313,6.9,E*63
$INDPT,2.2,0.0*47
$INAPB,A,A,0.097,L,N,V,V,77.7,T,S00001,43.7,T,43.7,T*59
$INBWR,113155,3702.6544,S,07330.2562,W,43.7,T,36.8,M,0.173,N,S00001*64
$INGLL,3702.7797,S,07330.4055,W,113155,A*3C
$INVTG,150.8,T,143.9,M,4.7,N,8.7,K*51
$INMTW,13.6,C*10
$INDPT,2.4,0.0*41
$INRMB,A,0.098,L,START,S00001,3702.6544,S,07330.2562,W,0.173,43.3,-1.4,V*22
$INRMC,113156,A,3702.7805,S,07330.4045,W,5.0,149.0,030313,6.9,E*62
$INDPT,2.2,0.0*47
$INAPB,A,A,0.099,L,N,V,V,77.7,T,S00001,42.8,T,42.8,T*57
$INBWR,113157,3702.6544,S,07330.2562,W,42.8,T,35.9,M,0.174,N,S00001*6D
$INGGA,113157,3702.7818,S,07330.4034,W,2,11,0.8,1.3,M,,,0.0,0000*2D
$INZDA,113157,03,03,2013,-07,00*72
$INMTW,13.6,C*10
$INDPT,2.3,0.0*46
$INRMB,A,0.099,L,START,S00001,3702.6544,S,07330.2562,W,0.174,42.8,-1.4,V*2E
$INRMC,113158,A,3702.7831,S,07330.4028,W,5.1,147.9,030313,6.9,E*66
$INDPT,2.4,0.0*41
$INAPB,A,A,0.101,L,N,V,V,77.7,T,S00001,42.4,T,42.4,T*57
$INBWR,113159,3702.6544,S,07330.2562,W,42.4,T,35.5,M,0.174,N,S00001*63
$INGLL,3702.7844,S,07330.4018,W,113159,A*38
$INVTG,147.8,T,140.9,M,5.2,N,9.6,K*50
$INMTW,13.5,C*13
$INDPT,2.3,0.0*46
$INRMB,A,0.104,L,START,S00001,3702.6544,S,07330.2562,W,0.175,41.4,-1.7,V*26
$INRMC,113200,A,3702.7857,S,07330.4007,W,5.1,150.5,030313,6.9,E*6F
$INDPT,2.0,0.0*45
$INAPB,A,A,0.105,L,N,V,V,77.7,T,S00001,41.0,T,41.0,T*53
$INBWR,113201,3702.6544,S,07330.2562,W,41.0,T,34.1,M,0.176,N,S00001*6D
$INGGA,113201,3702.7870,S,07330.4002,W,2,11,0.8,1.2,M,,,0.0,0000*27
$INZDA,113201,03,03,2013,-07,00*72
$INMTW,13.6,C*10
$INDPT,2.2,0.0*47
$INRMB,A,0.106,L,START,S00001,3702.6544,S,07330.2562,W,0.176,40.6,-1.8,V*2B
$INRMC,113202,A,3702.7879,S,07330.3991,W,5.3,150.1,030313,6.9,E*66
$INDPT,2.3,0.0*46
$INAPB,A,A,0.107,L,N,V,V,77.7,T,S00001,40.1,T,40.1,T*51
$INBWR,113203,3702.6544,S,07330.2562,W,40.1,T,33.2,M,0.176,N,S00001*6B
$INGLL,3702.7892,S,07330.3980,W,113203,A*30
$INVTG,151.5,T,144.6,M,5.1,N,9.4,K*50
$INMTW,13.5,C*13
$INDPT,2.3,0.0*46
$INRMB,A,0.109,L,START,S00001,3702.6544,S,07330.2562,W,0.177,39.8,-1.8,V*25
$INRMC,113204,A,3702.7905,S,07330.3975,W,5.3,150.8,030313,6.9,E*69
$INDPT,2.3,0.0*46
$INAPB,A,A,0.110,L,N,V,V,77.7,T,S00001,39.3,T,39.3,T*57
$INBWR,113205,3702.6544,S,07330.2562,W,39.3,T,32.4,M,0.177,N,S00001*67
$INGGA,113205,3702.7918,S,07330.3964,W,2,11,0.8,1.5,M,,,0.0,0000*25
$INZDA,113205,03,03,2013,-07,00*76
$INMTW,13.5,C*13
$INDPT,2.3,0.0*46
$INRMB,A,0.112,L,START,S00001,3702.6544,S,07330.2562,W,0.178,38.9,-1.7,V*2F
$INRMC,113206,A,3702.7931,S,07330.3958,W,5.0,148.5,030313,6.9,E*64
$INDPT,2.1,0.0*44
$INAPB,A,A,0.113,L,N,V,V,77.7,T,S00001,38.4,T,38.4,T*54
$INBWR,113207,3702.6544,S,07330.2562,W,38.4,T,31.5,M,0.179,N,S00001*6F
$INGLL,3702.7943,S,07330.3948,W,113207,A*3D
$INVTG,152.1,T,145.2,M,5.3,N,9.9,K*5D
$INMTW,13.5,C*13
$INDPT,2.1,0.0*44
$INRMB,A,0.114,L,START,S00001,3702.6544,S,07330.2562,W,0.179,37.9,-2.2,V*21
$INRMC,113208,A,3702.7956,S,07330.3937,W,5.7,152.5,030313,6.9,E*6E
$INDPT,2.2,0.0*47
$INAPB,A,A,0.116,L,N,V,V,77.7,T,S00001,37.6,T,37.6,T*51
$INBWR,113209,3702.6544,S,07330.2562,W,37.6,T,30.7,M,0.180,N,S00001*69
$INGGA,113209,3702.7969,S,07330.3931,W,2,11,0.8,1.3,M,,,0.0,0000*29
$INZDA,113209,03,03,2013,-07,00*7A
$INMTW,13.5,C*13
$INDPT,2.2,0.0*47
$INRMB,A,0.117,L,START,S00001,3702.6544,S,07330.2562,W,0.180,37.1,-2.0,V*2E
$INRMC,113210,A,3702.7982,S,07330.3921,W,4.7,153.2,030313,6.9,E*6E
$INDPT,2.2,0.0*47
$INAPB,A,A,0.118,L,N,V,V,77.7,T,S00001,36.8,T,36.8,T*5F
$INBWR,113211,3702.6544,S,07330.2562,W,36.8,T,29.9,M,0.181,N,S00001*68
$INGLL,3702.7991,S,07330.3915,W,113211,A*3D
$INVTG,153.0,T,146.1,M,4.3,N,7.9,K*52
$INMTW,13.5,C*13
$INDPT,2.3,0.0*46
$INRMB,A,0.119,L,START,S00001,3702.6544,S,07330.2562,W,0.181,36.6,-1.6,V*22
$INRMC,113212,A,3702.8000,S,07330.3910,W,3.8,153.1,030313,6.9,E*69
$INDPT,2.3,0.0*46
$INAPB,A,A,0.120,L,N,V,V,77.7,T,S00001,36.3,T,36.3,T*54
$INBWR,113213,3702.6544,S,07330.2562,W,36.3,T,29.4,M,0.182,N,S00001*6F
$INGGA,113213,3702.8008,S,07330.3904,W,2,11,0.8,1.6,M,,,0.0,0000*20
$INZDA,113213,03,03,2013,-07,00*71
$INMTW,13.6,C*10
$INDPT,2.3,0.0*46
$INRMB,A,0.121,L,START,S00001,3702.6544,S,07330.2562,W,0.182,36.0,-1.6,V*2C
$INRMC,113214,A,3702.8017,S,07330.3899,W,3.3,154.3,030313,6.9,E*67
$INDPT,2.2,0.0*47
$INAPB,A,A,0.122,L,N,V,V,77.7,T,S00001,35.8,T,35.8,T*56
$INBWR,113215,3702.6544,S,07330.2562,W,35.8,T,28.9,M,0.183,N,S00001*6C
$INGLL,3702.8026,S,07330.3894,W,113215,A*3B
$INVTG,150.9,T,144.0,M,3.2,N,6.0,K*55
$INMTW,13.6,C*10
$INDPT,2.3,0.0*46
$INRMB,A,0.123,L,START,S00001,3702.6544,S,07330.2562,W,0.183,35.5,-1.3,V*2C
$INRMC,113216,A,3702.8034,S,07330.3888,W,3.1,150.7,030313,6.9,E*66
$INDPT,2.4,0.0*41
$INAPB,A,A,0.123,L,N,V,V,77.7,T,S00001,35.3,T,35.3,T*57
$INBWR,113217,3702.6544,S,07330.2562,W,35.3,T,28.4,M,0.183,N,S00001*68
$INGGA,113217,3702.8039,S,07330.3883,W,2,11,0.8,1.3,M,,,0.0,0000*2D
$INZDA,113217,03,03,2013,-07,00*75
$INMTW,13.6,C*10
$INDPT,2.4,0.0*41
$INRMB,A,0.124,L,START,S00001,3702.6544,S,07330.2562,W,0.184,35.0,-0.9,V*22
$INRMC,113218,A,3702.8047,S,07330.3878,W,2.4,151.6,030313,6.9,E*67
$INDPT,2.5,0.0*40
$INAPB,A,A,0.125,L,N,V,V,77.7,T,S00001,35.0,T,35.0,T*51
$INBWR,113219,3702.6544,S,07330.2562,W,35.0,T,28.1,M,0.184,N,S00001*67
$INGLL,3702.8051,S,07330.3878,W,113219,A*35
$INVTG,139.7,T,132.8,M,1.8,N,3.4,K*54
$INMTW,13.6,C*10
$INDPT,2.4,0.0*41
$INRMB,A,0.125,L,START,S00001,3702.6544,S,07330.2562,W,0.184,34.8,-0.4,V*27
$INRMC,113220,A,3702.8056,S,07330.3872,W,1.8,137.8,030313,6.9,E*67
$INDPT,2.2,0.0*47
$INAPB,A,A,0.126,L,N,V,V,77.7,T,S00001,34.6,T,34.6,T*52
$INBWR,113221,3702.6544,S,07330.2562,W,34.6,T,27.7,M,0.184,N,S00001*62
$INGGA,113221,3702.8060,S,07330.3867,W,2,11,0.8,1.4,M,,,0.0,0000*29
$INZDA,113221,03,03,2013,-07,00*70
$INMTW,13.5,C*13
$INDPT,2.3,0.0*46
$INRMB,A,0.126,L,START,S00001,3702.6544,S,07330.2562,W,0.184,34.5,-0.5,V*28
$INRMC,113222,A,3702.8060,S,07330.3861,W,1.9,141.0,030313,6.9,E*6A
$INDPT,2.3,0.0*46
$INAPB,A,A,0.126,L,N,V,V,77.7,T,S00001,34.4,T,34.4,T*52
$INBWR,113223,3702.6544,S,07330.2562,W,34.4,T,27.5,M,0.184,N,S00001*60
$INGLL,3702.8064,S,07330.3861,W,113223,A*32
$INVTG,138.8,T,131.9,M,1.6,N,3.0,K*52
$INMTW,13.5,C*13
$INDPT,2.4,0.0*41
$INRMB,A,0.127,L,START,S00001,3702.6544,S,07330.2562,W,0.184,34.2,-0.3,V*28
$INRMC,113224,A,3702.8069,S,07330.3856,W,1.5,135.6,030313,6.9,E*68
$INDPT,2.2,0.0*47
$INAPB,A,A,0.127,L,N,V,V,77.7,T,S00001,34.1,T,34.1,T*53
$INBWR,113225,3702.6544,S,07330.2562,W,34.1,T,27.2,M,0.184,N,S00001*64
$INGGA,113225,3702.8069,S,07330.3851,W,2,11,0.9,1.2,M,,,0.0,0000*26
$INZDA,113225,03,03,2013,-07,00*74
$INMTW,13.5,C*13
$INDPT,2.3,0.0*46
$INRMB,A,0.127,L,START,S00001,3702.6544,S,07330.2562,W,0.184,33.9,-0.2,V*25
$INRMC,113226,A,3702.8073,S,07330.3845,W,1.6,133.4,030313,6.9,E*64
$INDPT,2.3,0.0*46
$INAPB,A,A,0.127,L,N,V,V,77.7,T,S00001,33.9,T,33.9,T*53
$INBWR,113227,3702.6544,S,07330.2562,W,33.9,T,27.0,M,0.184,N,S00001*6B
$INGLL,3702.8073,S,07330.3845,W,113227,A*36
$INVTG,131.0,T,124.1,M,1.1,N,2.1,K*58
$INMTW,13.5,C*13
$INDPT,2.4,0.0*41
$INRMB,A,0.128,L,START,S00001,3702.6544,S,07330.2562,W,0.184,33.7,-0.1,V*27
$INRMC,113228,A,3702.8077,S,07330.3840,W,1.1,130.1,030313,6.9,E*6A
$INDPT,2.4,0.0*41
$INAPB,A,A,0.128,L,N,V,V,77.7,T,S00001,33.7,T,33.7,T*5C
$INBWR,113229,3702.6544,S,07330.2562,W,33.7,T,26.8,M,0.184,N,S00001*62
$INGGA,113229,3702.8077,S,07330.3840,W,2,11,0.8,1.0,M,,,0.0,0000*26
$INZDA,113229,03,03,2013,-07,00*78
$INMTW,13.6,C*10
$INDPT,2.4,0.0*41
$INRMB,A,0.128,L,START,S00001,3702.6544,S,07330.2562,W,0.184,33.6,-0.1,V*26
$INRMC,113230,A,3702.8077,S,07330.3834,W,1.0,127.4,030313,6.9,E*62
$INDPT,2.3,0.0*46
$INAPB,A,A,0.129,L,N,V,V,77.7,T,S00001,33.4,T,33.4,T*5D
$INBWR,113231,3702.6544,S,07330.2562,W,33.4,T,26.5,M,0.184,N,S00001*65
$INGLL,3702.8082,S,07330.3829,W,113231,A*35
$INVTG,127.6,T,120.7,M,0.9,N,1.7,K*57
$INMTW,13.5,C*13
$INDPT,2.3,0.0*46
$INRMB,A,0.129,L,START,S00001,3702.6544,S,07330.2562,W,0.184,33.4,-0.1,V*25
$INRMC,113232,A,3702.8082,S,07330.3829,W,1.2,129.7,030313,6.9,E*69
$INDPT,2.4,0.0*41
$INAPB,A,A,0.129,L,N,V,V,77.7,T,S00001,33.2,T,33.2,T*5D
$INBWR,113233,3702.6544,S,07330.2562,W,33.2,T,26.3,M,0.184,N,S00001*67
$INGGA,113233,3702.8086,S,07330.3824,W,2,11,0.8,0.8,M,,,0.0,0000*28
$INZDA,113233,03,03,2013,-07,00*73
$INMTW,13.5,C*13
$INDPT,2.5,0.0*40
$INRMB,A,0.129,L,START,S00001,3702.6544,S,07330.2562,W,0.184,33.2,-0.0,V*22
$INRMC,113234,A,3702.8086,S,07330.3824,W,0.9,126.3,030313,6.9,E*67
$INDPT,2.4,0.0*41
$INAPB,A,A,0.129,L,N,V,V,77.7,T,S00001,33.1,T,33.1,T*5D
$INBWR,113235,3702.6544,S,07330.2562,W,33.1,T,26.2,M,0.184,N,S00001*63
$INGLL,3702.8086,S,07330.3818,W,113235,A*37
$INVTG,126.6,T,119.7,M,0.9,N,1.7,K*5C
$INMTW,13.5,C*13
$INDPT,2.2,0.0*47
$INRMB,A,0.130,L,START,S00001,3702.6544,S,07330.2562,W,0.185,33.1,-0.1,V*29
$INRMC,113236,A,3702.8090,S,07330.3818,W,1.2,128.2,030313,6.9,E*68
$INDPT,2.4,0.0*41
$INAPB,A,A,0.130,L,N,V,V,77.7,T,S00001,32.9,T,32.9,T*55
$INBWR,113237,3702.6544,S,07330.2562,W,32.9,T,26.0,M,0.184,N,S00001*6A
$INGGA,113237,3702.8090,S,07330.3813,W,2,11,0.8,0.7,M,,,0.0,0000*20
$INZDA,113237,03,03,2013,-07,00*77
$INMTW,13.6,C*10
$INDPT,2.4,0.0*41
$INRMB,A,0.130,L,START,S00001,3702.6544,S,07330.2562,W,0.184,32.8,-0.0,V*21
$INRMC,113238,A,3702.8090,S,07330.3807,W,1.0,125.2,030313,6.9,E*67
$INDPT,2.4,0.0*41
$INAPB,A,A,0.130,L,N,V,V,77.7,T,S00001,32.8,T,32.8,T*55
$INBWR,113239,3702.6544,S,07330.2562,W,32.8,T,25.9,M,0.184,N,S00001*6F
$INGLL,3702.8095,S,07330.3807,W,113239,A*37
$INVTG,122.1,T,115.2,M,0.8,N,1.5,K*55
$INMTW,13.4,C*12
$INDPT,2.2,0.0*47
$INRMB,A,0.130,L,START,S00001,3702.6544,S,07330.2562,W,0.184,32.8,-0.0,V*21
$INRMC,113240,A,3702.8095,S,07330.3807,W,0.6,124.5,030313,6.9,E*6C
$INDPT,2.4,0.0*41
$INAPB,A,A,0.130,L,N,V,V,77.7,T,S00001,32.6,T,32.6,T*55
$INBWR,113241,3702.6544,S,07330.2562,W,32.6,T,25.7,M,0.184,N,S00001*60
$INGGA,113241,3702.8095,S,07330.3802,W,2,11,0.8,0.7,M,,,0.0,0000*24
$INZDA,113241,03,03,2013,-07,00*76
$INMTW,13.5,C*13
$INDPT,2.4,0.0*41
$INRMB,A,0.130,L,START,S00001,3702.6544,S,07330.2562,W,0.184,32.6,0.0,V*02
$INRMC,113242,A,3702.8095,S,07330.3802,W,0.5,118.9,030313,6.9,E*6B
$INDPT,2.3,0.0*46
$INAPB,A,A,0.130,L,N,V,V,77.7,T,S00001,32.6,T,32.6,T*55
$INBWR,113243,3702.6544,S,07330.2562,W,32.6,T,25.7,M,0.184,N,S00001*62
$INGLL,3702.8095,S,07330.3802,W,113243,A*3F
$INVTG,119.1,T,112.2,M,0.4,N,0.8,K*5A
$INMTW,13.5,C*13
$INDPT,2.4,0.0*41
$INRMB,A,0.131,L,START,S00001,3702.6544,S,07330.2562,W,0.184,32.5,0.0,V*00
$INRMC,113244,A,3702.8099,S,07330.3797,W,0.6,120.4,030313,6.9,E*67
$INDPT,2.4,0.0*41
$INAPB,A,A,0.131,L,N,V,V,77.7,T,S00001,32.5,T,32.5,T*54
$INBWR,113245,3702.6544,S,07330.2562,W,32.5,T,25.6,M,0.184,N,S00001*66
$INGGA,113245,3702.8099,S,07330.3797,W,2,11,0.8,1.0,M,,,0.0,0000*29
$INZDA,113245,03,03,2013,-07,00*72
$INMTW,13.5,C*13
$INDPT,2.5,0.0*40
$INRMB,A,0.131,L,START,S00001,3702.6544,S,07330.2562,W,0.184,32.5,0.1,V*01
$INRMC,113246,A,3702.8099,S,07330.3797,W,0.5,114.2,030313,6.9,E*67
$INDPT,2.4,0.0*41
$INAPB,A,A,0.131,L,N,V,V,77.7,T,S00001,32.5,T,32.5,T*54
$INBWR,113247,3702.6544,S,07330.2562,W,32.5,T,25.6,M,0.184,N,S00001*64
$INGLL,3702.8099,S,07330.3797,W,113247,A*34
$INVTG,104.9,T,98.0,M,0.4,N,0.7,K*60
$INMTW,13.5,C*13
$INDPT,2.4,0.0*41
$INRMB,A,0.131,L,START,S00001,3702.6544,S,07330.2562,W,0.184,32.3,0.1,V*07
$INRMC,113248,A,3702.8099,S,07330.3791,W,0.5,104.9,030313,6.9,E*65
$INDPT,2.4,0.0*41
$INAPB,A,A,0.131,L,N,V,V,77.7,T,S00001,32.3,T,32.3,T*54
$INBWR,113249,3702.6544,S,07330.2562,W,32.3,T,25.4,M,0.184,N,S00001*6E
$INGGA,113249,3702.8099,S,07330.3791,W,2,11,0.8,1.1,M,,,0.0,0000*22
$INZDA,113249,03,03,2013,-07,00*7E
$INMTW,13.5,C*13
$INDPT,2.4,0.0*41
$INRMB,A,0.131,L,START,S00001,3702.6544,S,07330.2562,W,0.184,32.3,0.2,V*04
$INRMC,113250,A,3702.8099,S,07330.3791,W,0.8,109.4,030313,6.9,E*61
$INDPT,2.4,0.0*41
$INAPB,A,A,0.131,L,N,V,V,77.7,T,S00001,32.2,T,32.2,T*54
$INBWR,113251,3702.6544,S,07330.2562,W,32.2,T,25.3,M,0.184,N,S00001*61
$INGLL,3702.8099,S,07330.3786,W,113251,A*33
$INVTG,111.9,T,105.0,M,0.5,N,1.0,K*56
$INMTW,13.5,C*13
$INDPT,2.3,0.0*46
$INRMB,A,0.131,L,START,S00001,3702.6544,S,07330.2562,W,0.184,32.2,0.0,V*07
$INRMC,113252,A,3702.8099,S,07330.3786,W,0.5,115.4,030313,6.9,E*65
$INDPT,2.3,0.0*46
$INAPB,A,A,0.131,L,N,V,V,77.7,T,S00001,32.2,T,32.2,T*54
$INBWR,113253,3702.6544,S,07330.2562,W,32.2,T,25.3,M,0.184,N,S00001*63
$INGGA,113253,3702.8103,S,07330.3786,W,2,11,0.8,1.2,M,,,0.0,0000*2E
$INZDA,113253,03,03,2013,-07,00*75
$INMTW,13.5,C*13
$INDPT,2.4,0.0*41
$INRMB,A,0.131,L,START,S00001,3702.6544,S,07330.2562,W,0.184,32.2,0.0,V*07
$INRMC,113254,A,3702.8103,S,07330.3786,W,0.5,118.8,030313,6.9,E*60
$INDPT,2.3,0.0*46
$INAPB,A,A,0.132,L,N,V,V,77.7,T,S00001,32.0,T,32.0,T*57
$INBWR,113255,3702.6544,S,07330.2562,W,32.0,T,25.1,M,0.184,N,S00001*65
$INGLL,3702.8103,S,07330.3781,W,113255,A*32
$INVTG,118.6,T,111.7,M,0.6,N,1.1,K*50
$INMTW,13.5,C*13
$INDPT,2.3,0.0*46
$INRMB,A,0.132,L,START,S00001,3702.6544,S,07330.2562,W,0.184,32.0,0.0,V*06
$INRMC,113256,A,3702.8103,S,07330.3781,W,0.5,119.8,030313,6.9,E*64
$INDPT,2.4,0.0*41
$INAPB,A,A,0.132,L,N,V,V,77.7,T,S00001,32.0,T,32.0,T*57
$INBWR,113257,3702.6544,S,07330.2562,W,32.0,T,25.1,M,0.184,N,S00001*67
$INGGA,113257,3702.8103,S,07330.3781,W,2,11,0.8,1.2,M,,,0.0,0000*2D
$INZDA,113257,03,03,2013,-07,00*71
$INMTW,13.4,C*12
$INDPT,2.4,0.0*41
$INRMB,A,0.132,L,START,S00001,3702.6544,S,07330.2562,W,0.184,32.0,0.3,V*05
$INRMC,113258,A,3702.8103,S,07330.3781,W,0.5,93.0,030313,6.9,E*51
$INDPT,2.3,0.0*46
$INAPB,A,A,0.131,L,N,V,V,77.7,T,S00001,32.0,T,32.0,T*54
$INBWR,113259,3702.6544,S,07330.2562,W,32.0,T,25.1,M,0.183,N,S00001*6E
$INGLL,3702.8099,S,07330.3775,W,113259,A*37
$INVTG,77.6,T,70.7,M,0.8,N,1.4,K*55
$INMTW,13.5,C*13
$INDPT,2.2,0.0*47
$INRMB,A,0.131,L,START,S00001,3702.6544,S,07330.2562,W,0.183,32.0,0.2,V*00
$INRMC,113300,A,3702.8099,S,07330.3775,W,0.4,77.6,030313,6.9,E*59
$INDPT,2.3,0.0*46
$INAPB,A,A,0.131,L,N,V,V,77.7,T,S00001,32.0,T,32.0,T*54
$INBWR,113301,3702.6544,S,07330.2562,W,32.0,T,25.1,M,0.183,N,S00001*62
$INGGA,113301,3702.8099,S,07330.3775,W,2,11,0.8,1.2,M,,,0.0,0000*26
$INZDA,113301,03,03,2013,-07,00*73
$INMTW,13.5,C*13
$INDPT,2.3,0.0*46
$INRMB,A,0.132,L,START,S00001,3702.6544,S,07330.2562,W,0.184,31.8,0.2,V*0F
$INRMC,113302,A,3702.8103,S,07330.3770,W,0.5,85.4,030313,6.9,E*52
$INDPT,2.3,0.0*46
$INAPB,A,A,0.132,L,N,V,V,77.7,T,S00001,31.8,T,31.8,T*57
$INBWR,113303,3702.6544,S,07330.2562,W,31.8,T,24.9,M,0.184,N,S00001*65
$INGLL,3702.8103,S,07330.3770,W,113303,A*3E
$INVTG,97.1,T,90.2,M,0.4,N,0.7,K*59
$INMTW,13.5,C*13
$INDPT,2.7,0.0*42
$INRMB,A,0.132,L,START,S00001,3702.6544,S,07330.2562,W,0.184,31.8,0.1,V*0C
$INRMC,113304,A,3702.8103,S,07330.3770,W,0.5,101.3,030313,6.9,E*6E
$INDPT,2.4,0.0*41
$INAPB,A,A,0.132,L,N,V,V,77.7,T,S00001,31.7,T,31.7,T*57
$INBWR,113305,3702.6544,S,07330.2562,W,31.7,T,24.8,M,0.183,N,S00001*6A
$INGGA,113305,3702.8103,S,07330.3764,W,2,11,0.9,1.0,M,,,0.0,0000*23
$INZDA,113305,03,03,2013,-07,00*77
$INMTW,13.4,C*12
$INDPT,2.4,0.0*41
$INRMB,A,0.132,L,START,S00001,3702.6544,S,07330.2562,W,0.183,31.7,0.1,V*04
$INRMC,113306,A,3702.8103,S,07330.3764,W,0.4,101.3,030313,6.9,E*68
$INDPT,2.5,0.0*40
$INAPB,A,A,0.132,L,N,V,V,77.7,T,S00001,31.7,T,31.7,T*57
$INBWR,113307,3702.6544,S,07330.2562,W,31.7,T,24.8,M,0.183,N,S00001*68
$INGLL,3702.8103,S,07330.3764,W,113307,A*3F
$INVTG,101.3,T,94.4,M,0.1,N,0.2,K*67
$INMTW,13.5,C*13
$INDPT,2.4,0.0*41
$INRMB,A,0.132,L,START,S00001,3702.6544,S,07330.2562,W,0.183,31.7,0.1,V*04
$INRMC,113308,A,3702.8103,S,07330.3764,W,0.1,101.3,030313,6.9,E*63
$INDPT,2.4,0.0*41
$INAPB,A,A,0.132,L,N,V,V,77.7,T,S00001,31.7,T,31.7,T*57
$INBWR,113309,3702.6544,S,07330.2562,W,31.7,T,24.8,M,0.183,N,S00001*66
$INGGA,113309,3702.8103,S,07330.3764,W,2,11,0.8,1.0,M,,,0.0,0000*2E
$INZDA,113309,03,03,2013,-07,00*7B
$INMTW,13.5,C*13
$INDPT,2.4,0.0*41
$INRMB,A,0.132,L,START,S00001,3702.6544,S,07330.2562,W,0.183,31.6,0.1,V*05
$INRMC,113310,A,3702.8103,S,07330.3759,W,0.7,108.2,030313,6.9,E*6A
$INDPT,2.4,0.0*41
$INAPB,A,A,0.132,L,N,V,V,77.7,T,S00001,31.5,T,31.5,T*57
$INBWR,113311,3702.6544,S,07330.2562,W,31.5,T,24.6,M,0.183,N,S00001*63
$INGLL,3702.8108,S,07330.3759,W,113311,A*3D
$INVTG,108.2,T,101.3,M,0.3,N,0.6,K*53
$INMTW,13.5,C*13
$INDPT,2.5,0.0*40
$INRMB,A,0.132,L,START,S00001,3702.6544,S,07330.2562,W,0.183,31.5,0.1,V*06
